url,title,type,layout,rent_area,rent_price,distance,dist,bc,location,lng,lat,aver_price
https://xa.lianjia.com/zufang/XA1602139827728285696.html,整租·乐居场小区A4区 1室1厅 南,整租,1室1厅1,55,1700,796m,碑林,城东,西安市碑林区乐居场小区A4区,108.984892,34.251427,30.90909091
https://xa.lianjia.com/zufang/XA2747752841681838080.html,合租·人保家属院 5居室 南卧,合租,5室1厅2,26,799,1140m,碑林,黄雁村,西安市碑林区人保家属院,108.944642,34.255447,30.73076923
https://xa.lianjia.com/zufang/XA2763126733044719616.html,合租·飞天花园小区 5居室 南卧,合租,5室2厅1,22,700,None,碑林,黄雁村,西安市碑林区飞天花园小区,108.933851,34.238956,31.81818182
https://xa.lianjia.com/zufang/XA1602670670355890176.html,整租·长安壹栋 1室1厅 西,整租,1室1厅1,54,2000,729m,碑林,南稍门,西安市碑林区长安壹栋,108.955157,34.241415,37.03703704
https://xa.lianjia.com/zufang/XA2658668886513426432.html,合租·东窑坊 3居室 南卧,合租,3室1厅1,15,900,790m,碑林,城东,西安市碑林区东窑坊,109.00171,34.272028,60
https://xa.lianjia.com/zufang/XA2884648728919015424.html,整租·永乐小区 3室1厅 东/南,整租,3室1厅1,128,2000,789m,碑林,城东,西安市碑林区永乐小区,116.239151,39.906231,15.625
https://xa.lianjia.com/zufang/XA2884366722339979264.html,整租·南门望城 1室0厅 北,整租,1室0厅1,42,2000,633m,碑林,南稍门,西安市碑林区南门望城,108.950908,34.252407,47.61904762
https://xa.lianjia.com/zufang/XA2884837394836889600.html,整租·兴庆小区隆庆坊 2室1厅 南,整租,2室1厅1,60,1000,399m,碑林,城东,西安市碑林区兴庆小区隆庆坊,108.996449,34.267419,16.66666667
https://xa.lianjia.com/zufang/XA2649948649408167936.html,整租·海星未来城 1室0厅 南,整租,1室0厅1,43,2000,712m,碑林,城西,西安市碑林区海星未来城,108.928102,34.241314,46.51162791
https://xa.lianjia.com/zufang/XA2702214824179539968.html,合租·东窑坊 5居室 西卧,合租,5室0厅1,8,501,583m,碑林,城东,西安市碑林区东窑坊,109.00171,34.272028,62.625
https://xa.lianjia.com/zufang/XA2652120949687853056.html,整租·兴庆宫 3室2厅 南,整租,3室2厅2,155,2600,970m,碑林,城东,西安市碑林区兴庆宫,108.991992,34.264561,16.77419355
https://xa.lianjia.com/zufang/XA2591099705014353920.html,合租·东窑坊 3居室 南卧,合租,3室1厅1,30,1100,589m,碑林,城东,西安市碑林区东窑坊,109.00171,34.272028,36.66666667
https://xa.lianjia.com/zufang/XA2884842964763279360.html,整租·大话南门 2室1厅 南,整租,2室1厅1,76,3000,915m,碑林,南稍门,西安市碑林区大话南门,108.954973,34.246207,39.47368421
https://xa.lianjia.com/zufang/XA2884794764828614656.html,整租·瑞鑫摩天城 4室2厅 南/北,整租,4室2厅2,156.89,5500,910m,碑林,城西,西安市碑林区瑞鑫摩天城,108.925762,34.24141,35.05640895
https://xa.lianjia.com/zufang/XA2555003044895408128.html,整租·农行陕西省分行东关家属院 3室2厅 南/北,整租,3室2厅1,101.04,1400,1098m,碑林,城东,西安市碑林区农行陕西省分行东关家属院,108.981616,34.268289,13.85589865
https://xa.lianjia.com/zufang/XA2689163186921545728.html,整租·医疗器械家属院 1室1厅 南/北,整租,1室1厅1,85,2600,978m,碑林,城东,西安市碑林区医疗器械家属院,108.946974,34.263047,30.58823529
https://xa.lianjia.com/zufang/XA2529519529420398592.html,整租·超英长乐家园 3室2厅 东北,整租,3室2厅2,113,2500,None,碑林,城东,西安市碑林区超英长乐家园,108.990558,34.269326,22.12389381
https://xa.lianjia.com/zufang/XA2583112537927057408.html,整租·西窑坊小区 2室2厅 南/北,整租,2室2厅1,70,1300,419m,碑林,城东,西安市碑林区西窑坊小区,108.997319,34.272159,18.57142857
https://xa.lianjia.com/zufang/XA2712846887601848320.html,合租·东窑坊 5居室 南卧,合租,5室0厅1,15,780,626m,碑林,城东,西安市碑林区东窑坊,109.00171,34.272028,52
https://xa.lianjia.com/zufang/XA2581790213915549696.html,整租·中联颐华苑 4室2厅 南,整租,4室2厅1,212,7000,672m,碑林,南稍门,西安市碑林区中联颐华苑,108.959695,34.255319,33.01886792
https://xa.lianjia.com/zufang/XA2872522391043710976.html,合租·东方广场 3居室 南卧,合租,3室1厅1,20,800,789m,碑林,城东,西安市碑林区东方广场,109.000689,34.249311,40
https://xa.lianjia.com/zufang/XA2557955307351851008.html,整租·西安市碑林区和平路东十一道巷 1室1厅 东,整租,1室1厅0,750,26000,615m,碑林,城内,西安市碑林区西安市碑林区和平路东十一道巷,108.946974,34.263047,34.66666667
https://xa.lianjia.com/zufang/XA2833166556999974912.html,合租·太白北路103号 5居室 南卧,合租,5室0厅2,20,780,579m,碑林,黄雁村,西安市碑林区太白北路103号,108.930272,34.245065,39
https://xa.lianjia.com/zufang/XA2607976960944775168.html,整租·交通新苑 3室1厅 西/北,整租,3室1厅2,156,5500,822m,碑林,南稍门,西安市碑林区交通新苑,108.949887,34.254191,35.25641026
https://xa.lianjia.com/zufang/XA2845544923984838656.html,合租·民政局家属院 5居室 南卧,合租,5室1厅2,15,550,None,碑林,黄雁村,西安市碑林区民政局家属院,108.981691,34.245365,36.66666667
https://xa.lianjia.com/zufang/XA2602285873861509120.html,整租·北火巷小区 2室1厅 南/北,整租,2室1厅1,52,1000,863m,碑林,城东,西安市碑林区北火巷小区,108.988369,34.270583,19.23076923
https://xa.lianjia.com/zufang/XA2833166554987249664.html,合租·太白北路103号 5居室 南卧,合租,5室0厅2,20,850,579m,碑林,黄雁村,西安市碑林区太白北路103号,108.930272,34.245065,42.5
https://xa.lianjia.com/zufang/XA1565581593072893952.html,整租·唐宁国际 2室1厅 北,整租,2室1厅1,65,3000,1177m,碑林,城内,西安市碑林区唐宁国际,108.942952,34.264592,46.15384615
https://xa.lianjia.com/zufang/XA2768673215257001984.html,合租·东窑坊 4居室 南卧,合租,4室1厅1,18,860,583m,碑林,城东,西安市碑林区东窑坊,109.00171,34.272028,47.77777778
https://xa.lianjia.com/zufang/XA2902914671977693184.html,整租·大话南门 8室0厅 西/北,整租,8室0厅0,505,39000,915m,碑林,南稍门,西安市碑林区大话南门,108.954973,34.246207,77.22772277
https://xa.lianjia.com/zufang/XA2783304552676327424.html,合租·东窑坊 5居室 南卧,合租,5室1厅2,10,650,589m,碑林,城东,西安市碑林区东窑坊,109.00171,34.272028,65
https://xa.lianjia.com/zufang/XA2903707993567150080.html,整租·朱雀社区北区 3室1厅 南/北,整租,3室1厅1,77.77,1800,695m,碑林,南稍门,西安市碑林区朱雀社区北区,108.948636,34.255249,23.14517166
https://xa.lianjia.com/zufang/XA2725283031567826944.html,合租·陕西体育馆家属院 4居室 南卧,合租,4室1厅1,19,750,None,碑林,南稍门,西安市碑林区陕西体育馆家属院,108.956016,34.25187,39.47368421
https://xa.lianjia.com/zufang/XA2903709598198808576.html,整租·长安壹栋 1室0厅 东,整租,1室0厅1,60,2300,729m,碑林,南稍门,西安市碑林区长安壹栋,108.955157,34.241415,38.33333333
https://xa.lianjia.com/zufang/XA1565273827460513792.html,整租·珠江时代广场 1室0厅 西,整租,1室0厅1,57,2900,201m,碑林,南稍门,西安市碑林区珠江时代广场,108.955197,34.255113,50.87719298
https://xa.lianjia.com/zufang/XA1565894146479095808.html,整租·德福巷 3室2厅 南/北,整租,3室2厅2,130,2800,699m,碑林,城内,西安市碑林区德福巷,108.950368,34.260156,21.53846154
https://xa.lianjia.com/zufang/XA1565894681894584320.html,整租·德福巷 4室2厅 跃层 南/北,整租,4室2厅2,300,5500,699m,碑林,城内,西安市碑林区德福巷,108.950368,34.260156,18.33333333
https://xa.lianjia.com/zufang/XA1565683632138354688.html,整租·宏信国际花园 4室2厅 东,整租,4室2厅2,400,32000,321m,碑林,南稍门,西安市碑林区宏信国际花园,108.9572,34.256363,80
https://xa.lianjia.com/zufang/XA2737499256834228224.html,合租·天伦御城龙脉刘家庄小区 4居室 南卧,合租,4室1厅1,18,750,682m,碑林,城东,西安市碑林区天伦御城龙脉刘家庄小区,108.943164,34.256609,41.66666667
https://xa.lianjia.com/zufang/XA1566046559483723776.html,整租·和平公馆 1室0厅 东北,整租,1室0厅1,45,1550,403m,碑林,城内,西安市碑林区和平公馆,108.969223,34.262971,34.44444444
https://xa.lianjia.com/zufang/XA1565550619131904000.html,合租·伊顿公馆东区 4居室 南卧,合租,4室1厅1,28,950,489m,碑林,城西,西安市碑林区伊顿公馆东区,108.928463,34.245644,33.92857143
https://xa.lianjia.com/zufang/XA2903486333064585216.html,整租·宏信国际花园 3室2厅 南,整租,3室2厅2,138,5500,321m,碑林,南稍门,西安市碑林区宏信国际花园,108.9572,34.256363,39.85507246
https://xa.lianjia.com/zufang/XA1565557987794223104.html,整租·兰蒂斯城3期 3室2厅 西南,整租,3室2厅2,145.74,4000,427m,碑林,城东,西安市碑林区兰蒂斯城3期,108.998026,34.252037,27.44613696
https://xa.lianjia.com/zufang/XA1565590155635458048.html,整租·陕建十一建集团边西街小区 2室1厅 南/北,整租,2室1厅1,65,1500,589m,碑林,黄雁村,西安市碑林区陕建十一建集团边西街小区,108.933271,34.25093,23.07692308
https://xa.lianjia.com/zufang/XA1565598782094049280.html,整租·大话南门 2室1厅 东,整租,2室1厅1,89,3200,915m,碑林,南稍门,西安市碑林区大话南门,108.954973,34.246207,35.95505618
https://xa.lianjia.com/zufang/XA1565659016300855296.html,整租·西安市八十八号信箱家属院 2室2厅 南/北,整租,2室2厅1,66.77,1800,435m,碑林,李家村,西安市碑林区西安市八十八号信箱家属院,108.971152,34.25279,26.95821477
https://xa.lianjia.com/zufang/XA1566031244565676032.html,整租·水文巷附２号 3室0厅 南/北,整租,3室0厅1,80,2200,612m,碑林,黄雁村,西安市碑林区水文巷附２号,108.935455,34.243673,27.5
https://xa.lianjia.com/zufang/XA1566268370028855296.html,整租·珠江时代广场 1室0厅 北,整租,1室0厅1,50,2750,201m,碑林,南稍门,西安市碑林区珠江时代广场,108.955197,34.255113,55
https://xa.lianjia.com/zufang/XA2833166556999974912.html,合租·太白北路103号 5居室 南卧,合租,5室0厅2,20,780,579m,碑林,黄雁村,西安市碑林区太白北路103号,108.930272,34.245065,39
https://xa.lianjia.com/zufang/XA2905764787923730432.html,整租·索罗巷95号院 3室0厅 南/北,整租,3室0厅1,75,1200,None,碑林,城东,西安市碑林区索罗巷95号院,108.988284,34.266318,16
https://xa.lianjia.com/zufang/XA2845544923984838656.html,合租·民政局家属院 5居室 南卧,合租,5室1厅2,15,550,None,碑林,黄雁村,西安市碑林区民政局家属院,108.981691,34.245365,36.66666667
https://xa.lianjia.com/zufang/XA2905764212498776064.html,整租·云龙大厦 2室1厅 南,整租,2室1厅1,72,2100,1004m,碑林,城内,西安市碑林区云龙大厦,108.959962,34.263883,29.16666667
https://xa.lianjia.com/zufang/XA2905183939222585344.html,整租·盛城东星 2室1厅 北,整租,2室1厅1,72,2400,1084m,碑林,城东,西安市碑林区盛城东星,108.990166,34.271833,33.33333333
https://xa.lianjia.com/zufang/XA2833166555498684416.html,合租·太白北路103号 5居室 南卧,合租,5室0厅2,25,830,579m,碑林,黄雁村,西安市碑林区太白北路103号,108.930272,34.245065,33.2
https://xa.lianjia.com/zufang/XA2906342881797079040.html,整租·宏信国际花园 1室1厅 南/北,整租,1室1厅1,55,3000,321m,碑林,南稍门,西安市碑林区宏信国际花园,108.9572,34.256363,54.54545455
https://xa.lianjia.com/zufang/XA2528053307872911360.html,合租·新旅城 3居室 南卧,合租,3室1厅1,20,1200,None,碑林,李家村,西安市碑林区新旅城,108.965556,34.242714,60
https://xa.lianjia.com/zufang/XA1567838654297014272.html,整租·大话南门 1室0厅 西南,整租,1室0厅1,30,1800,915m,碑林,南稍门,西安市碑林区大话南门,108.954973,34.246207,60
https://xa.lianjia.com/zufang/XA1613124230004604928.html,合租·大话南门 4居室 南卧,合租,4室1厅1,30,1500,None,碑林,南稍门,西安市碑林区大话南门,108.954973,34.246207,50
https://xa.lianjia.com/zufang/XA1603234741824258048.html,整租·恒佳尊者汇 2室2厅 南,整租,2室2厅1,91,4600,182m,碑林,南稍门,西安市碑林区恒佳尊者汇,108.953655,34.239831,50.54945055
https://xa.lianjia.com/zufang/XA1604707698819989504.html,合租·华豪丽晶黄东社区 3居室 南卧,合租,3室0厅1,25,1150,25m,碑林,黄雁村,西安市碑林区华豪丽晶黄东社区,108.939359,34.246878,46
https://xa.lianjia.com/zufang/XA1603283568912498688.html,整租·陕西省环境监测中心站家属院 2室1厅 西南,整租,2室1厅1,81.27,1700,557m,碑林,南稍门,西安市碑林区陕西省环境监测中心站家属院,108.958846,34.243039,20.91792789
https://xa.lianjia.com/zufang/XA1612395830898065408.html,合租·尚城公馆 4居室 南卧,合租,4室2厅2,20,999,594m,碑林,南稍门,西安市碑林区尚城公馆,108.95775,34.244839,49.95
https://xa.lianjia.com/zufang/XA1603326698642735104.html,整租·大话南门 2室1厅 南,整租,2室1厅1,67,2500,915m,碑林,南稍门,西安市碑林区大话南门,108.954973,34.246207,37.31343284
https://xa.lianjia.com/zufang/XA1603333910056402944.html,整租·陕安朱雀佳苑 2室2厅 南/西,整租,2室2厅2,127,3500,275m,碑林,黄雁村,西安市碑林区陕安朱雀佳苑,108.942999,34.248414,27.55905512
https://xa.lianjia.com/zufang/XA1602949761906769920.html,整租·南门望城 1室1厅 北,整租,1室1厅1,45,2200,633m,碑林,南稍门,西安市碑林区南门望城,108.950908,34.252407,48.88888889
https://xa.lianjia.com/zufang/XA1603329711704899584.html,整租·西安公馆 3室1厅 东,整租,3室1厅2,120,4000,796m,碑林,南稍门,西安市碑林区西安公馆,108.946415,34.250533,33.33333333
https://xa.lianjia.com/zufang/XA1603336150758457344.html,整租·光荣南村 2室1厅 南,整租,2室1厅1,60,1500,801m,碑林,南稍门,西安市碑林区光荣南村,116.063184,39.884233,25
https://xa.lianjia.com/zufang/XA1612398640830087168.html,合租·白金广场小区 4居室 南卧,合租,4室0厅1,16,950,835m,碑林,南稍门,西安市碑林区白金广场小区,108.959529,34.240385,59.375
https://xa.lianjia.com/zufang/XA1603342388955185152.html,整租·西安公馆 3室1厅 东,整租,3室1厅1,110,3900,796m,碑林,南稍门,西安市碑林区西安公馆,108.946415,34.250533,35.45454545
https://xa.lianjia.com/zufang/XA1612735343310667776.html,合租·中贸广场 3居室 南卧,合租,3室1厅1,18,850,960m,碑林,南稍门,西安市碑林区中贸广场,108.952082,34.248943,47.22222222
https://xa.lianjia.com/zufang/XA1603357036559466496.html,整租·大话南门 1室0厅 东,整租,1室0厅1,30,1800,915m,碑林,南稍门,西安市碑林区大话南门,108.954973,34.246207,60
https://xa.lianjia.com/zufang/XA1603716523766054912.html,整租·金色城市 1室0厅 北,整租,1室0厅1,43,2200,413m,碑林,南稍门,西安市碑林区金色城市,108.959344,34.250987,51.1627907
https://xa.lianjia.com/zufang/XA1602989626547503104.html,整租·唐宁国际 1室0厅 南,整租,1室0厅1,45,2400,1177m,碑林,城内,西安市碑林区唐宁国际,108.942952,34.264592,53.33333333
https://xa.lianjia.com/zufang/XA1603009444159946752.html,整租·陕安朱雀佳苑 3室2厅 西南,整租,3室2厅2,140,6000,275m,碑林,黄雁村,西安市碑林区陕安朱雀佳苑,108.942999,34.248414,42.85714286
https://xa.lianjia.com/zufang/XA1603067444795015168.html,整租·东泰城市之光北区 2室1厅 南,整租,2室1厅1,55,2200,622m,碑林,黄雁村,西安市碑林区东泰城市之光北区,108.934809,34.250256,40
https://xa.lianjia.com/zufang/XA1603224110454800384.html,整租·摩登主场 3室2厅 南,整租,3室2厅2,117,3800,938m,碑林,南稍门,西安市碑林区摩登主场,108.955377,34.244081,32.47863248
https://xa.lianjia.com/zufang/XA1603243681513472000.html,整租·中贸广场 1室1厅 西,整租,1室1厅1,51,2300,217m,碑林,南稍门,西安市碑林区中贸广场,108.952082,34.248943,45.09803922
https://xa.lianjia.com/zufang/XA1612737927375224832.html,合租·泰华世纪新城Ⅱ 3居室 南卧,合租,3室1厅1,22,1100,79m,碑林,李家村,西安市碑林区泰华世纪新城Ⅱ,108.961415,34.248239,50
https://xa.lianjia.com/zufang/XA1603943269518016512.html,整租·陕西省医药公司家属院 2室1厅 南/北,整租,2室1厅1,70.62,1000,None,碑林,城东,西安市碑林区陕西省医药公司家属院,108.986939,34.266968,14.16029453
https://xa.lianjia.com/zufang/XA1613120612618731520.html,合租·尚城公馆 3居室 南卧,合租,3室1厅1,25,950,568m,碑林,南稍门,西安市碑林区尚城公馆,108.95775,34.244839,38
https://xa.lianjia.com/zufang/XA1603961520696328192.html,整租·金玉人家 1室0厅 东,整租,1室0厅1,40,1700,374m,碑林,城东,西安市碑林区金玉人家,108.999834,34.273048,42.5
https://xa.lianjia.com/zufang/XA1612716418082537472.html,合租·嘉怡豪庭 4居室 南卧,合租,4室1厅2,25,900,None,碑林,南稍门,西安市碑林区嘉怡豪庭,108.954704,34.240662,36
https://xa.lianjia.com/zufang/XA1603996761385336832.html,整租·丰润国际公寓 1室1厅 东,整租,1室1厅1,70,2100,604m,碑林,城西,西安市碑林区丰润国际公寓,108.929528,34.242448,30
https://xa.lianjia.com/zufang/XA1612732860605661184.html,合租·中贸广场 3居室 北卧,合租,3室1厅1,27,1200,582m,碑林,南稍门,西安市碑林区中贸广场,108.952082,34.248943,44.44444444
https://xa.lianjia.com/zufang/XA1603272482452668416.html,整租·景润花园 3室2厅 南/北,整租,3室2厅2,174,4000,506m,碑林,李家村,西安市碑林区景润花园,108.972734,34.250372,22.98850575
https://xa.lianjia.com/zufang/XA1617101771857985536.html,整租·东方星苑 1室1厅 南,整租,1室1厅1,50,2184,None,碑林,城东,西安市碑林区东方星苑,108.981506,34.266542,43.68
https://xa.lianjia.com/zufang/XA2871006516352122880.html,整租·德福巷 3室1厅 南/北,整租,3室1厅1,71,1700,699m,碑林,城内,西安市碑林区德福巷,108.950368,34.260156,23.94366197
https://xa.lianjia.com/zufang/XA2906467045359501312.html,合租·景寓学府东区 4居室 东卧,合租,4室1厅2,28,700,None,碑林,城西,西安市碑林区景寓学府东区,108.925526,34.253931,25
https://xa.lianjia.com/zufang/XA2871057716926234624.html,整租·兰蒂斯城2期 3室2厅 南,整租,3室2厅1,107,3900,162m,碑林,城东,西安市碑林区兰蒂斯城2期,109.000678,34.250559,36.44859813
https://xa.lianjia.com/zufang/XA2526314520897929216.html,合租·西荷花园 4居室 南卧,合租,4室1厅1,18,501,862m,碑林,黄雁村,西安市碑林区西荷花园,108.932285,34.242085,27.83333333
https://xa.lianjia.com/zufang/XA2870292951559307264.html,整租·宏信国际花园 1室0厅 南,整租,1室0厅1,55,1400,321m,碑林,南稍门,西安市碑林区宏信国际花园,108.9572,34.256363,25.45454545
https://xa.lianjia.com/zufang/XA2528492586960683008.html,合租·西荷花园 4居室 南卧,合租,4室1厅1,24,750,862m,碑林,黄雁村,西安市碑林区西荷花园,108.932285,34.242085,31.25
https://xa.lianjia.com/zufang/XA2876058258605613056.html,整租·南门国际 1室0厅 南,整租,1室0厅1,55,2500,None,碑林,南稍门,西安市碑林区南门国际,108.954961,34.251846,45.45454545
https://xa.lianjia.com/zufang/XA2876872905646948352.html,整租·华阳大厦 1室0厅 南,整租,1室0厅1,50,3000,None,碑林,南稍门,西安市碑林区华阳大厦,108.957253,34.256824,60
https://xa.lianjia.com/zufang/XA2878124382595850240.html,整租·绿地乐和城 1室0厅 西南,整租,1室0厅1,56.77,2000,659m,碑林,李家村,西安市碑林区绿地乐和城,108.974294,34.238132,35.22987493
https://xa.lianjia.com/zufang/XA2872377865058385920.html,整租·唐宁国际 3室2厅 南,整租,3室2厅1,130,6000,1177m,碑林,城内,西安市碑林区唐宁国际,108.942952,34.264592,46.15384615
https://xa.lianjia.com/zufang/XA2873079422347378688.html,整租·大话南门 2室1厅 西,整租,2室1厅0,188,17000,915m,碑林,南稍门,西安市碑林区大话南门,108.954973,34.246207,90.42553191
https://xa.lianjia.com/zufang/XA2528507865828687872.html,合租·西荷花园 4居室 南卧,合租,4室1厅1,20,880,962m,碑林,黄雁村,西安市碑林区西荷花园,108.932285,34.242085,44
https://xa.lianjia.com/zufang/XA2873073465857425408.html,整租·长安壹栋 1室1厅 西,整租,1室1厅1,56,2400,729m,碑林,南稍门,西安市碑林区长安壹栋,108.955157,34.241415,42.85714286
https://xa.lianjia.com/zufang/XA2860245466271465472.html,合租·西荷花园 4居室 南卧,合租,4室1厅2,24,720,856m,碑林,黄雁村,西安市碑林区西荷花园,108.932285,34.242085,30
https://xa.lianjia.com/zufang/XA2873787829496840192.html,整租·中贸广场 1室1厅 东,整租,1室1厅1,66,2800,217m,碑林,南稍门,西安市碑林区中贸广场,108.952082,34.248943,42.42424242
https://xa.lianjia.com/zufang/XA2881232955882348544.html,整租·功德小区 3室2厅 东南,整租,3室2厅2,142,4500,606m,碑林,李家村,西安市碑林区功德小区,108.978116,34.253374,31.69014085
https://xa.lianjia.com/zufang/XA2881723298448670720.html,新兴翰园 3室2厅 南/北,未知,3室2厅2,168,4200,460m,碑林,城东,西安市碑林区新兴翰园,108.991573,34.246999,25
https://xa.lianjia.com/zufang/XA2879720530494636032.html,整租·长安大街3号 3室1厅 东南/南,整租,3室1厅1,90,2900,259m,碑林,南稍门,西安市碑林区长安大街3号,108.95558,34.238625,32.22222222
https://xa.lianjia.com/zufang/XA2880936371672064000.html,整租·东方星座 3室2厅 南/北,整租,3室2厅2,143,2800,1185m,碑林,城东,西安市碑林区东方星座,108.988292,34.264936,19.58041958
https://xa.lianjia.com/zufang/XA2881177653439119360.html,整租·兰蒂斯城3期 3室2厅 东南,整租,3室2厅2,144,4000,427m,碑林,城东,西安市碑林区兰蒂斯城3期,108.998026,34.252037,27.77777778
https://xa.lianjia.com/zufang/XA2874733748220329984.html,整租·消防家属院 2室1厅 南,整租,2室1厅1,70,1100,589m,碑林,城东,西安市碑林区消防家属院,109.001404,34.270315,15.71428571
https://xa.lianjia.com/zufang/XA2528495944409300992.html,合租·西荷花园 4居室 南卧,合租,4室1厅1,18,501,962m,碑林,黄雁村,西安市碑林区西荷花园,108.932285,34.242085,27.83333333
https://xa.lianjia.com/zufang/XA2875335680815808512.html,整租·中国航天七七一所太乙路园区(北) 2室1厅 南/北,整租,2室1厅1,100,1700,331m,碑林,城东,西安市碑林区中国航天七七一所太乙路园区(北),108.979036,34.251537,17
https://xa.lianjia.com/zufang/XA2895509085262979072.html,整租·西荷花园 3室1厅 南,整租,3室1厅1,99.98,2688,944m,碑林,黄雁村,西安市碑林区西荷花园,108.932285,34.242085,26.88537708
https://xa.lianjia.com/zufang/XA2882645053241827328.html,整租·民航小区 2室2厅 南/北,整租,2室2厅1,74.7,2800,732m,碑林,城西,西安市碑林区民航小区,108.924331,34.243305,37.4832664
https://xa.lianjia.com/zufang/XA2894797346032320512.html,合租·西荷花园 3居室 南卧,合租,3室1厅1,24,850,962m,碑林,黄雁村,西安市碑林区西荷花园,108.932285,34.242085,35.41666667
https://xa.lianjia.com/zufang/XA2881974960732250112.html,整租·东方星苑 3室2厅 东/南,整租,3室2厅1,120,2500,1169m,碑林,城东,西安市碑林区东方星苑,108.981506,34.266542,20.83333333
https://xa.lianjia.com/zufang/XA1567357228699090944.html,合租·凯旋城 5居室 南卧,合租,5室1厅1,23,666,899m,碑林,黄雁村,西安市碑林区凯旋城,108.933269,34.240563,28.95652174
https://xa.lianjia.com/zufang/XA2735758764195192832.html,合租·西荷花园 4居室 南卧,合租,4室1厅1,26,750,862m,碑林,黄雁村,西安市碑林区西荷花园,108.932285,34.242085,28.84615385
https://xa.lianjia.com/zufang/XA1608088991544901632.html,整租·环城南路48号院 2室1厅 南/北,整租,2室1厅1,72,1400,671m,碑林,南稍门,西安市碑林区环城南路48号院,108.947391,34.256695,19.44444444
https://xa.lianjia.com/zufang/XA2528507865828687872.html,合租·西荷花园 4居室 南卧,合租,4室1厅1,20,880,962m,碑林,黄雁村,西安市碑林区西荷花园,108.932285,34.242085,44
https://xa.lianjia.com/zufang/XA1605928307411386368.html,整租·枫绿国际住宅小区 2室2厅 东,整租,2室2厅1,105.8,2800,None,碑林,黄雁村,西安市碑林区枫绿国际住宅小区,108.944704,34.254257,26.46502836
https://xa.lianjia.com/zufang/XA1603958272950272000.html,合租·北沙庄园 3居室 南卧,合租,3室1厅1,30,1200,170m,碑林,城东,西安市碑林区北沙庄园,109.00201,34.25061,40
https://xa.lianjia.com/zufang/XA1605941063871102976.html,整租·大话南门 2室2厅 南/西,整租,2室2厅1,90,3100,915m,碑林,南稍门,西安市碑林区大话南门,108.954973,34.246207,34.44444444
https://xa.lianjia.com/zufang/XA1612734699640193024.html,整租·中贸广场 2室1厅 南/北,整租,2室1厅1,86,2900,None,碑林,南稍门,西安市碑林区中贸广场,108.952082,34.248943,33.72093023
https://xa.lianjia.com/zufang/XA1606129227223007232.html,整租·中贸广场 2室1厅 北,整租,2室1厅1,65,3300,217m,碑林,南稍门,西安市碑林区中贸广场,108.952082,34.248943,50.76923077
https://xa.lianjia.com/zufang/XA1606272955313029120.html,整租·绿地乐和城 1室1厅 西,整租,1室1厅1,42,2100,659m,碑林,李家村,西安市碑林区绿地乐和城,108.974294,34.238132,50
https://xa.lianjia.com/zufang/XA1606134194214273024.html,整租·水文巷88号 2室2厅 南/北,整租,2室2厅1,93,3200,570m,碑林,黄雁村,西安市碑林区水文巷88号,108.935321,34.243576,34.40860215
https://xa.lianjia.com/zufang/XA1606157976517738496.html,整租·教会小区 2室1厅 南,整租,2室1厅1,60,1000,None,碑林,城东,西安市碑林区教会小区,108.98917,34.267874,16.66666667
https://xa.lianjia.com/zufang/XA1605789794120499200.html,整租·新旅城上东 1室1厅 东,整租,1室1厅1,47,2000,None,碑林,李家村,西安市碑林区新旅城上东,108.973419,34.239018,42.55319149
https://xa.lianjia.com/zufang/XA2587478472780169216.html,合租·兰蒂斯城1期 4居室 南卧,合租,4室1厅2,26,850,542m,碑林,城东,西安市碑林区兰蒂斯城1期,108.995852,34.250943,32.69230769
https://xa.lianjia.com/zufang/XA1605791074767339520.html,整租·长安大街3号 1室0厅 东,整租,1室0厅1,46.45,3000,259m,碑林,南稍门,西安市碑林区长安大街3号,108.95558,34.238625,64.58557589
https://xa.lianjia.com/zufang/XA2640535826589040640.html,合租·乐居场小区A4区 3居室 南卧,合租,3室1厅1,17,700,854m,碑林,城东,西安市碑林区乐居场小区A4区,108.984892,34.251427,41.17647059
https://xa.lianjia.com/zufang/XA1605804759741104128.html,整租·宏信国际花园 2室1厅 南,整租,2室1厅2,110.48,4500,321m,碑林,南稍门,西安市碑林区宏信国际花园,108.9572,34.256363,40.73135409
https://xa.lianjia.com/zufang/XA1605882775787798528.html,整租·招商局广场 2室2厅 北,整租,2室2厅1,128,4500,1098m,碑林,城东,西安市碑林区招商局广场,108.980836,34.265269,35.15625
https://xa.lianjia.com/zufang/XA1606240947144753152.html,整租·西窑坊小区 2室1厅 东北,整租,2室1厅1,70,1800,419m,碑林,城东,西安市碑林区西窑坊小区,108.997319,34.272159,25.71428571
https://xa.lianjia.com/zufang/XA1606245716064206848.html,整租·兰蒂斯城2期 3室2厅 南/北,整租,3室2厅2,108,2700,162m,碑林,城东,西安市碑林区兰蒂斯城2期,109.000678,34.250559,25
https://xa.lianjia.com/zufang/XA1606249620806041600.html,整租·乐居都会 2室2厅 北,整租,2室2厅2,131.19,2800,None,碑林,城东,西安市碑林区乐居都会,116.512569,39.959557,21.34309017
https://xa.lianjia.com/zufang/XA1606867357416816640.html,整租·长安壹栋 1室1厅 南,整租,1室1厅1,60,2000,729m,碑林,南稍门,西安市碑林区长安壹栋,108.955157,34.241415,33.33333333
https://xa.lianjia.com/zufang/XA1606592996659167232.html,整租·瑞华苑 4室2厅 南/北,整租,4室2厅2,140,2000,None,碑林,城东,西安市碑林区瑞华苑,108.981591,34.262371,14.28571429
https://xa.lianjia.com/zufang/XA1613814144119603200.html,合租·翡翠明珠 4居室 南卧,合租,4室1厅1,25,999,None,碑林,南稍门,西安市碑林区翡翠明珠,108.95447,34.243805,39.96
https://xa.lianjia.com/zufang/XA1606252366808481792.html,整租·翡翠明珠 1室1厅 南,整租,1室1厅1,54,2450,375m,碑林,南稍门,西安市碑林区翡翠明珠,108.95447,34.243805,45.37037037
https://xa.lianjia.com/zufang/XA1603999359488229376.html,整租·省农行家属院 1室1厅 南/北,整租,1室1厅1,72,1650,522m,碑林,城内,西安市碑林区省农行家属院,108.950828,34.265079,22.91666667
https://xa.lianjia.com/zufang/XA1606505634033827840.html,整租·兰蒂斯城3期 3室2厅 东南,整租,3室2厅2,132,3500,427m,碑林,城东,西安市碑林区兰蒂斯城3期,108.998026,34.252037,26.51515152
https://xa.lianjia.com/zufang/XA2844773565163634688.html,合租·学府首座南沙社区 4居室 南卧,合租,4室1厅2,25,780,779m,碑林,城东,西安市碑林区学府首座南沙社区,108.99944,34.250486,31.2
https://xa.lianjia.com/zufang/XA1606482626703523840.html,整租·军工南院 2室2厅 西北,整租,2室2厅1,90,2800,1138m,碑林,黄雁村,西安市碑林区军工南院,108.975343,34.240908,31.11111111
https://xa.lianjia.com/zufang/XA2844771299392225280.html,合租·秦埔公寓 4居室 东南卧,合租,4室0厅1,20,510,109m,碑林,南稍门,西安市碑林区秦埔公寓,108.954182,34.248532,25.5
https://xa.lianjia.com/zufang/XA1606521713619632128.html,整租·荣城 2室2厅 南,整租,2室2厅1,91,3100,775m,碑林,南稍门,西安市碑林区荣城,108.957725,34.241127,34.06593407
https://xa.lianjia.com/zufang/XA1614896302712160256.html,整租·景致雅居 3室2厅 南,整租,3室2厅2,105.59,4000,768m,碑林,南稍门,西安市碑林区景致雅居,108.954761,34.242249,37.88237522
https://xa.lianjia.com/zufang/XA2821596560365207552.html,整租·海联物业友谊东路小区 2室1厅 东,整租,2室1厅1,80,1400,685m,碑林,城东,西安市碑林区海联物业友谊东路小区,108.988632,34.247011,17.5
https://xa.lianjia.com/zufang/XA1613814144119603200.html,合租·翡翠明珠 4居室 南卧,合租,4室1厅1,25,999,None,碑林,南稍门,西安市碑林区翡翠明珠,108.95447,34.243805,39.96
https://xa.lianjia.com/zufang/XA2818183648069550080.html,整租·伊顿公馆东区 3室2厅 东,整租,3室2厅1,110,6500,364m,碑林,城西,西安市碑林区伊顿公馆东区,108.928463,34.245644,59.09090909
https://xa.lianjia.com/zufang/XA2665028265987031040.html,合租·新旅城上东 4居室 南卧,合租,4室1厅2,15,650,None,碑林,李家村,西安市碑林区新旅城上东,108.973419,34.239018,43.33333333
https://xa.lianjia.com/zufang/XA2795451331367157760.html,整租·常春藤花园 2室1厅 西南,整租,2室1厅1,105,4000,1002m,碑林,城东,西安市碑林区常春藤花园,108.996411,34.253655,38.0952381
https://xa.lianjia.com/zufang/XA1603999359488229376.html,整租·省农行家属院 1室1厅 南/北,整租,1室1厅1,72,1650,522m,碑林,城内,西安市碑林区省农行家属院,108.950828,34.265079,22.91666667
https://xa.lianjia.com/zufang/XA2819635137997193216.html,整租·金叶长乐居 3室1厅 西北,整租,3室1厅2,118,3250,None,碑林,城东,西安市碑林区金叶长乐居,108.984762,34.26923,27.54237288
https://xa.lianjia.com/zufang/XA2821035045719392256.html,整租·碧水云轩 2室1厅 西,整租,2室1厅1,98,2600,906m,碑林,城东,西安市碑林区碧水云轩,108.995017,34.257993,26.53061224
https://xa.lianjia.com/zufang/XA2822413099289034752.html,整租·东新巷13号 2室1厅 南/北,整租,2室1厅1,77,1200,None,碑林,城东,西安市碑林区东新巷13号,108.990038,34.268467,15.58441558
https://xa.lianjia.com/zufang/XA2823945129079865344.html,整租·摩登主场 1室1厅 东北,整租,1室1厅1,100,2500,938m,碑林,南稍门,西安市碑林区摩登主场,108.955377,34.244081,25
https://xa.lianjia.com/zufang/XA2801481142766157824.html,整租·碧水云轩 2室1厅 东,整租,2室1厅1,98,2000,906m,碑林,城东,西安市碑林区碧水云轩,108.995017,34.257993,20.40816327
https://xa.lianjia.com/zufang/XA2670059576182702080.html,合租·长乐坊小区 4居室 东南卧,合租,4室1厅1,20,700,None,碑林,城东,西安市碑林区长乐坊小区,108.981769,34.269963,35
https://xa.lianjia.com/zufang/XA2803004186344554496.html,整租·伊顿公馆东区 2室1厅 南,整租,2室1厅1,84,5000,364m,碑林,城西,西安市碑林区伊顿公馆东区,108.928463,34.245644,59.52380952
https://xa.lianjia.com/zufang/XA2844773565163634688.html,合租·学府首座南沙社区 4居室 南卧,合租,4室1厅2,25,780,779m,碑林,城东,西安市碑林区学府首座南沙社区,108.99944,34.250486,31.2
https://xa.lianjia.com/zufang/XA2826657514819960832.html,整租·西北电业职工大学家属院北区 4室2厅 南/北,整租,4室2厅1,120,2700,355m,碑林,李家村,西安市碑林区西北电业职工大学家属院北区,108.961971,34.250316,22.5
https://xa.lianjia.com/zufang/XA2806582921891422208.html,整租·粮油局家属院 3室1厅 南/北,整租,3室1厅1,107.68,2200,524m,碑林,城东,西安市碑林区粮油局家属院,108.984401,34.250556,20.43090639
https://xa.lianjia.com/zufang/XA2807232820899225600.html,整租·自在广场 4室2厅 南/北,整租,4室2厅2,156.56,4200,451m,碑林,城西,西安市碑林区自在广场,108.924246,34.24622,26.82677568
https://xa.lianjia.com/zufang/XA2825271315928457216.html,整租·兴庆花园 4室2厅 东北,整租,4室2厅2,192.86,4200,900m,碑林,城东,西安市碑林区兴庆花园,108.994119,34.264685,21.77745515
https://xa.lianjia.com/zufang/XA2826692509491527680.html,整租·陕西电力科学研究院 2室2厅 南,整租,2室2厅1,78.84,2500,718m,碑林,城东,西安市碑林区陕西电力科学研究院,108.989646,34.246304,31.70979198
https://xa.lianjia.com/zufang/XA2826088723433922560.html,整租·和平公馆 1室0厅 西,整租,1室0厅1,50,2200,403m,碑林,城内,西安市碑林区和平公馆,108.969223,34.262971,44
https://xa.lianjia.com/zufang/XA2828215733308096512.html,整租·李家村万达广场 1室0厅 东,整租,1室0厅1,51.35,2000,401m,碑林,李家村,西安市碑林区李家村万达广场,108.968448,34.249853,38.94839338
https://xa.lianjia.com/zufang/XA2844771299392225280.html,合租·秦埔公寓 4居室 东南卧,合租,4室0厅1,20,510,109m,碑林,南稍门,西安市碑林区秦埔公寓,108.954182,34.248532,25.5
https://xa.lianjia.com/zufang/XA2828096939932000256.html,整租·瑞鑫摩天城 2室1厅 东/南,整租,2室1厅1,86,2500,910m,碑林,城西,西安市碑林区瑞鑫摩天城,108.925762,34.24141,29.06976744
https://xa.lianjia.com/zufang/XA1614896302712160256.html,整租·景致雅居 3室2厅 南,整租,3室2厅2,105.59,4000,768m,碑林,南稍门,西安市碑林区景致雅居,108.954761,34.242249,37.88237522
https://xa.lianjia.com/zufang/XA2872356921908658176.html,整租·中贸广场 1室0厅 南,整租,1室0厅1,41,2600,217m,碑林,南稍门,西安市碑林区中贸广场,108.952082,34.248943,63.41463415
https://xa.lianjia.com/zufang/XA1616010387243663360.html,整租·长安大街3号 1室1厅 南,整租,1室1厅1,55.01,2350,None,碑林,南稍门,西安市碑林区长安大街3号,108.95558,34.238625,42.71950554
https://xa.lianjia.com/zufang/XA2872542703202615296.html,整租·乐居场小区A4区 2室1厅 西/北,整租,2室1厅1,65,2100,796m,碑林,城东,西安市碑林区乐居场小区A4区,108.984892,34.251427,32.30769231
https://xa.lianjia.com/zufang/XA1616007707133739008.html,整租·翡翠明珠 1室0厅 南,整租,1室0厅1,57.32,2400,375m,碑林,南稍门,西安市碑林区翡翠明珠,108.95447,34.243805,41.87020237
https://xa.lianjia.com/zufang/XA2871065866551181312.html,整租·中贸广场 3室1厅 西南,整租,3室1厅1,120,4500,217m,碑林,南稍门,西安市碑林区中贸广场,108.952082,34.248943,37.5
https://xa.lianjia.com/zufang/XA2871771910092898304.html,整租·景致雅居 3室1厅 西北,整租,3室1厅2,118,3500,768m,碑林,南稍门,西安市碑林区景致雅居,108.954761,34.242249,29.66101695
https://xa.lianjia.com/zufang/XA1577852366294614016.html,整租·西安工程大学西家属区北院 2室1厅 南/北,整租,2室1厅1,58,1500,634m,碑林,城东,西安市碑林区西安工程大学西家属区北院,108.997485,34.263361,25.86206897
https://xa.lianjia.com/zufang/XA1577967440925556736.html,整租·长安壹栋 1室1厅 北,整租,1室1厅1,52.63,2400,729m,碑林,南稍门,西安市碑林区长安壹栋,108.955157,34.241415,45.60136804
https://xa.lianjia.com/zufang/XA1615526231220944896.html,合租·兰蒂斯城3期 5居室 北卧,合租,5室0厅1,20,700,427m,碑林,城东,西安市碑林区兰蒂斯城3期,108.998026,34.252037,35
https://xa.lianjia.com/zufang/XA1576048163893018624.html,整租·银邦大厦 3室2厅 东南,整租,3室2厅1,132.69,3500,345m,碑林,城东,西安市碑林区银邦大厦,108.946974,34.263047,26.37727033
https://xa.lianjia.com/zufang/XA1576072645307269120.html,整租·宏信国际花园 1室0厅 北,整租,1室0厅1,55,2300,321m,碑林,南稍门,西安市碑林区宏信国际花园,108.9572,34.256363,41.81818182
https://xa.lianjia.com/zufang/XA1576180500916076544.html,整租·陕西省计量科学研究院家属院 3室1厅 南/北,整租,3室1厅1,96,1400,None,碑林,城东,西安市碑林区陕西省计量科学研究院家属院,108.98334,34.256684,14.58333333
https://xa.lianjia.com/zufang/XA1615526231757815808.html,合租·兰蒂斯城3期 5居室 南卧,合租,5室0厅1,20,700,427m,碑林,城东,西安市碑林区兰蒂斯城3期,108.998026,34.252037,35
https://xa.lianjia.com/zufang/XA1576181882557562880.html,整租·宏信国际花园 2室1厅 南,整租,2室1厅1,87.8,3600,321m,碑林,南稍门,西安市碑林区宏信国际花园,108.9572,34.256363,41.0022779
https://xa.lianjia.com/zufang/XA1576445300690649088.html,整租·东方紫韵 1室0厅 北,整租,1室0厅1,42,1650,86m,碑林,城内,西安市碑林区东方紫韵,108.970321,34.264526,39.28571429
https://xa.lianjia.com/zufang/XA1615550254176796672.html,合租·县仓巷12号 3居室 南卧,合租,3室1厅1,18,750,1124m,碑林,城内,西安市碑林区县仓巷12号,108.963714,34.260066,41.66666667
https://xa.lianjia.com/zufang/XA1576444357794332672.html,整租·交通新苑 2室2厅 东,整租,2室2厅1,131,4500,822m,碑林,南稍门,西安市碑林区交通新苑,108.949887,34.254191,34.35114504
https://xa.lianjia.com/zufang/XA1613757162843013120.html,合租·东窑坊 5居室 南卧,合租,5室0厅2,10,680,589m,碑林,城东,西安市碑林区东窑坊,109.00171,34.272028,68
https://xa.lianjia.com/zufang/XA1577929711512715264.html,整租·绿地乐和城 1室1厅 南,整租,1室1厅1,47,1800,659m,碑林,李家村,西安市碑林区绿地乐和城,108.974294,34.238132,38.29787234
https://xa.lianjia.com/zufang/XA1579417857379270656.html,整租·泰华世纪新城1期 2室1厅 南,整租,2室1厅1,84,2600,232m,碑林,李家村,西安市碑林区泰华世纪新城1期,108.961415,34.248239,30.95238095
https://xa.lianjia.com/zufang/XA1577542163451871232.html,整租·简爱十六楼 1室0厅 北,整租,1室0厅1,43,1500,778m,碑林,城东,西安市碑林区简爱十六楼,108.998588,34.254251,34.88372093
https://xa.lianjia.com/zufang/XA1577566657998487552.html,整租·学府首座 1室1厅 西,整租,1室1厅1,49.1,2000,494m,碑林,城东,西安市碑林区学府首座,108.996695,34.249715,40.73319756
https://xa.lianjia.com/zufang/XA1614103223272996864.html,合租·帝标大厦 5居室 南卧,合租,5室1厅2,30,900,None,碑林,城东,西安市碑林区帝标大厦,108.986382,34.266019,30
https://xa.lianjia.com/zufang/XA1614134324955709440.html,合租·东窑坊 5居室 东北卧,合租,5室1厅1,15,680,589m,碑林,城东,西安市碑林区东窑坊,109.00171,34.272028,45.33333333
https://xa.lianjia.com/zufang/XA1577575845176803328.html,整租·骊马豪城 1室0厅 东,整租,1室0厅1,42,1900,769m,碑林,南稍门,西安市碑林区骊马豪城,108.956278,34.242744,45.23809524
https://xa.lianjia.com/zufang/XA1579132821098725376.html,整租·长安壹栋 1室1厅 西,整租,1室1厅1,53.62,2100,729m,碑林,南稍门,西安市碑林区长安壹栋,108.955157,34.241415,39.16449086
https://xa.lianjia.com/zufang/XA1579447232036339712.html,整租·迎宾广场 2室1厅 西,整租,2室1厅1,80,2000,900m,碑林,城西,西安市碑林区迎宾广场,108.929282,34.255991,25
https://xa.lianjia.com/zufang/XA1579382979858268160.html,整租·体育教育公寓 3室1厅 东北,整租,3室1厅1,91.68,2900,None,碑林,南稍门,西安市碑林区体育教育公寓,108.948314,34.236751,31.63176265
https://xa.lianjia.com/zufang/XA1579683746917908480.html,整租·西安建工职工服务中心兴庆路家属院 1室1厅 南/北,整租,1室1厅1,50,1300,585m,碑林,城东,西安市碑林区西安建工职工服务中心兴庆路家属院,108.996079,34.273188,26
https://xa.lianjia.com/zufang/XA1579683456235864064.html,整租·乐居场南路17号 3室2厅 南/北,整租,3室2厅1,68.2,2200,320m,碑林,城东,西安市碑林区乐居场南路17号,108.946974,34.263047,32.25806452
https://xa.lianjia.com/zufang/XA1577626441598631936.html,整租·乐居都会 2室1厅 北,整租,2室1厅2,119.14,2500,None,碑林,城东,西安市碑林区乐居都会,116.512569,39.959557,20.98371664
https://xa.lianjia.com/zufang/XA1577925637463605248.html,整租·兰蒂斯城1期 1室0厅 北,整租,1室0厅1,39,1900,474m,碑林,城东,西安市碑林区兰蒂斯城1期,108.995852,34.250943,48.71794872
https://xa.lianjia.com/zufang/XA1577926067652395008.html,整租·摩登主场 1室1厅 南,整租,1室1厅1,40,1600,938m,碑林,南稍门,西安市碑林区摩登主场,108.955377,34.244081,40
https://xa.lianjia.com/zufang/XA1578354002221858816.html,整租·中贸广场 1室1厅 北,整租,1室1厅1,45,2500,217m,碑林,南稍门,西安市碑林区中贸广场,108.952082,34.248943,55.55555556
https://xa.lianjia.com/zufang/XA1578387756348866560.html,整租·东屿枫舍 3室2厅 南,整租,3室2厅1,127.87,3200,None,碑林,城东,西安市碑林区东屿枫舍,108.979715,34.263221,25.02541644
https://xa.lianjia.com/zufang/XA1609880979881590784.html,整租·金地园 2室1厅 南,整租,2室1厅1,80,2350,676m,碑林,南稍门,西安市碑林区金地园,108.959633,34.242538,29.375
https://xa.lianjia.com/zufang/XA1609882197047640064.html,整租·长安大街3号 1室0厅 西,整租,1室0厅1,40,2000,259m,碑林,南稍门,西安市碑林区长安大街3号,108.95558,34.238625,50
https://xa.lianjia.com/zufang/XA1609750313252683776.html,整租·珠江时代广场 1室0厅 南,整租,1室0厅1,45,3000,201m,碑林,南稍门,西安市碑林区珠江时代广场,108.955197,34.255113,66.66666667
https://xa.lianjia.com/zufang/XA1564870219241881600.html,合租·东窑坊 4居室 东卧,合租,4室1厅1,15,700,577m,碑林,城东,西安市碑林区东窑坊,109.00171,34.272028,46.66666667
https://xa.lianjia.com/zufang/XA1609757250384035840.html,整租·长乐坊小区 2室2厅 西北,整租,2室2厅1,84,2300,579m,碑林,城东,西安市碑林区长乐坊小区,108.981769,34.269963,27.38095238
https://xa.lianjia.com/zufang/XA1566999132738945024.html,合租·伊顿公馆东区 4居室 南卧,合租,4室1厅1,27,900,489m,碑林,城西,西安市碑林区伊顿公馆东区,108.928463,34.245644,33.33333333
https://xa.lianjia.com/zufang/XA1571437338012155904.html,合租·东窑坊 4居室 南卧,合租,4室0厅2,13,501,589m,碑林,城东,西安市碑林区东窑坊,109.00171,34.272028,38.53846154
https://xa.lianjia.com/zufang/XA1609771022876147712.html,整租·乐居场小区A3区 2室1厅 东南,整租,2室1厅1,75,1800,623m,碑林,城东,西安市碑林区乐居场小区A3区,108.983266,34.253195,24
https://xa.lianjia.com/zufang/XA1609746181838077952.html,整租·陕西省疾控中心家属院 2室1厅 南,整租,2室1厅1,70,2000,812m,碑林,李家村,西安市碑林区陕西省疾控中心家属院,108.974172,34.251526,28.57142857
https://xa.lianjia.com/zufang/XA1571402306862186496.html,合租·东窑坊 5居室 东卧,合租,5室0厅2,16,650,583m,碑林,城东,西安市碑林区东窑坊,109.00171,34.272028,40.625
https://xa.lianjia.com/zufang/XA1609747896092065792.html,整租·大话南门 1室0厅 东,整租,1室0厅1,48,2000,915m,碑林,南稍门,西安市碑林区大话南门,108.954973,34.246207,41.66666667
https://xa.lianjia.com/zufang/XA2857997744051077120.html,合租·兰蒂斯城2期 5居室 南卧,合租,5室1厅2,20,700,415m,碑林,城东,西安市碑林区兰蒂斯城2期,109.000678,34.250559,35
https://xa.lianjia.com/zufang/XA2662893848208359424.html,合租·民政局家属院 5居室 西南卧,合租,5室1厅2,20,680,None,碑林,黄雁村,西安市碑林区民政局家属院,108.981691,34.245365,34
https://xa.lianjia.com/zufang/XA1609776949201207296.html,整租·金色城市 2室2厅 西,整租,2室2厅1,92,2600,413m,碑林,南稍门,西安市碑林区金色城市,108.959344,34.250987,28.26086957
https://xa.lianjia.com/zufang/XA1609764936391589888.html,整租·大话南门 1室0厅 东,整租,1室0厅1,55,2200,915m,碑林,南稍门,西安市碑林区大话南门,108.954973,34.246207,40
https://xa.lianjia.com/zufang/XA1609767006578409472.html,整租·大话南门 1室0厅 西,整租,1室0厅1,55,2400,915m,碑林,南稍门,西安市碑林区大话南门,108.954973,34.246207,43.63636364
https://xa.lianjia.com/zufang/XA1609766409456320512.html,整租·军工北院 2室1厅 南/北,整租,2室1厅1,59,1800,953m,碑林,黄雁村,西安市碑林区军工北院,108.972756,34.243812,30.50847458
https://xa.lianjia.com/zufang/XA1609762063511453696.html,整租·测绘局家属楼 2室2厅 南/北,整租,2室2厅1,116,3200,358m,碑林,李家村,西安市碑林区测绘局家属楼,108.961953,34.246835,27.5862069
https://xa.lianjia.com/zufang/XA2713827819804704768.html,合租·东窑坊 5居室 南卧,合租,5室0厅1,15,820,577m,碑林,城东,西安市碑林区东窑坊,109.00171,34.272028,54.66666667
https://xa.lianjia.com/zufang/XA1609835395355246592.html,整租·荣城 3室2厅 南/北,整租,3室2厅1,98,3200,775m,碑林,南稍门,西安市碑林区荣城,108.957725,34.241127,32.65306122
https://xa.lianjia.com/zufang/XA2729494684282912768.html,合租·西安公馆 4居室 南卧,合租,4室1厅1,20,950,979m,碑林,南稍门,西安市碑林区西安公馆,108.946415,34.250533,47.5
https://xa.lianjia.com/zufang/XA1609881041739186176.html,整租·盛龙广场太白苑 2室2厅 西南,整租,2室2厅1,85,2600,1149m,碑林,黄雁村,西安市碑林区盛龙广场太白苑,108.931456,34.239619,30.58823529
https://xa.lianjia.com/zufang/XA1609888835263528960.html,整租·大话南门 1室0厅 南,整租,1室0厅1,38,2000,915m,碑林,南稍门,西安市碑林区大话南门,108.954973,34.246207,52.63157895
https://xa.lianjia.com/zufang/XA1610221081270943744.html,整租·敬业大厦 1室0厅 西,整租,1室0厅1,65,2000,891m,碑林,李家村,西安市碑林区敬业大厦,108.961196,34.255406,30.76923077
https://xa.lianjia.com/zufang/XA1610219707766407168.html,整租·宏信国际花园 1室1厅 南,整租,1室1厅1,67.5,2300,321m,碑林,南稍门,西安市碑林区宏信国际花园,108.9572,34.256363,34.07407407
https://xa.lianjia.com/zufang/XA1609904752714317824.html,整租·尊域·嘉 1室0厅 南,整租,1室0厅1,63.61,2300,244m,碑林,城西,西安市碑林区尊域·嘉,108.929559,34.243492,36.15783682
https://xa.lianjia.com/zufang/XA1610132006920781824.html,整租·唐宁国际 1室0厅 东,整租,1室0厅0,95.62,3100,1177m,碑林,城内,西安市碑林区唐宁国际,108.942952,34.264592,32.41999582
https://xa.lianjia.com/zufang/XA1610111256138612736.html,整租·中贸广场 3室1厅 西南,整租,3室1厅2,145,5100,217m,碑林,南稍门,西安市碑林区中贸广场,108.952082,34.248943,35.17241379
https://xa.lianjia.com/zufang/XA1610124268257935360.html,整租·荣城 3室1厅 东/南,整租,3室1厅1,109.8,3600,775m,碑林,南稍门,西安市碑林区荣城,108.957725,34.241127,32.78688525
https://xa.lianjia.com/zufang/XA1609916568802689024.html,整租·云龙大厦 2室1厅 南,整租,2室1厅1,57,1800,1004m,碑林,城内,西安市碑林区云龙大厦,108.959962,34.263883,31.57894737
https://xa.lianjia.com/zufang/XA1581124622173077504.html,整租·兰蒂斯城3期 1室1厅 北,整租,1室1厅1,52,2300,427m,碑林,城东,西安市碑林区兰蒂斯城3期,108.998026,34.252037,44.23076923
https://xa.lianjia.com/zufang/XA1580923678470701056.html,整租·冠生家园 3室2厅 南/北,整租,3室2厅1,126,2700,None,碑林,城东,西安市碑林区冠生家园,108.988688,34.26926,21.42857143
https://xa.lianjia.com/zufang/XA1581132870548717568.html,整租·常春藤花园 1室0厅 南,整租,1室0厅0,20,600,1002m,碑林,城东,西安市碑林区常春藤花园,108.996411,34.253655,30
https://xa.lianjia.com/zufang/XA1582660164039737344.html,整租·骊马豪城 1室0厅 西,整租,1室0厅1,55,3800,769m,碑林,南稍门,西安市碑林区骊马豪城,108.956278,34.242744,69.09090909
https://xa.lianjia.com/zufang/XA1613373477639684096.html,合租·金玉人家 3居室 南卧,合租,3室1厅2,20,1000,802m,碑林,城东,西安市碑林区金玉人家,108.999834,34.273048,50
https://xa.lianjia.com/zufang/XA1612414563695722496.html,合租·中贸广场 3居室 东南卧,合租,3室1厅1,15,800,602m,碑林,南稍门,西安市碑林区中贸广场,108.952082,34.248943,53.33333333
https://xa.lianjia.com/zufang/XA1612414841237012480.html,合租·城南鑫苑 3居室 东卧,合租,3室1厅1,22,700,None,碑林,南稍门,西安市碑林区城南鑫苑,108.954787,34.242284,31.81818182
https://xa.lianjia.com/zufang/XA1582971883337285632.html,整租·中贸广场 1室1厅 南/北,整租,1室1厅1,41,2000,217m,碑林,南稍门,西安市碑林区中贸广场,108.952082,34.248943,48.7804878
https://xa.lianjia.com/zufang/XA1582745703485014016.html,整租·尊域·嘉 1室1厅 北,整租,1室1厅1,63.71,2800,244m,碑林,城西,西安市碑林区尊域·嘉,108.929559,34.243492,43.94914456
https://xa.lianjia.com/zufang/XA1581219081581756416.html,整租·新文巷11号院 2室2厅 东南,整租,2室2厅1,89,2000,775m,碑林,南稍门,西安市碑林区新文巷11号院,108.956627,34.240029,22.47191011
https://xa.lianjia.com/zufang/XA1581220472299716608.html,整租·凯旋城 3室2厅 南/北,整租,3室2厅2,138,4800,899m,碑林,黄雁村,西安市碑林区凯旋城,108.933269,34.240563,34.7826087
https://xa.lianjia.com/zufang/XA1612415511562289152.html,合租·钟楼小区 5居室 南卧,合租,5室0厅1,22,650,None,碑林,城内,西安市碑林区钟楼小区,108.950837,34.264042,29.54545455
https://xa.lianjia.com/zufang/XA1581203511352229888.html,整租·常春藤花园北区 3室2厅 南/北,整租,3室2厅2,143,4500,1007m,碑林,城东,西安市碑林区常春藤花园北区,108.996125,34.254452,31.46853147
https://xa.lianjia.com/zufang/XA1581271427720413184.html,整租·飞天花园小区 2室2厅 南/北,整租,2室2厅1,75,1800,None,碑林,黄雁村,西安市碑林区飞天花园小区,108.933851,34.238956,24
https://xa.lianjia.com/zufang/XA1613390947238805504.html,合租·中贸广场 3居室 东南卧,合租,3室1厅1,18,850,None,碑林,南稍门,西安市碑林区中贸广场,108.952082,34.248943,47.22222222
https://xa.lianjia.com/zufang/XA1615313225564291072.html,整租·大话南门 1室1厅 南/北,整租,1室1厅1,55,2199,None,碑林,南稍门,西安市碑林区大话南门,108.954973,34.246207,39.98181818
https://xa.lianjia.com/zufang/XA1581521577084715008.html,整租·旺园大厦 1室0厅 南,整租,1室0厅1,25,2500,1088m,碑林,黄雁村,西安市碑林区旺园大厦,108.944158,34.25658,100
https://xa.lianjia.com/zufang/XA1615313740608045056.html,整租·长安大街3号 2室2厅 南/北,整租,2室2厅1,90,3299,None,碑林,南稍门,西安市碑林区长安大街3号,108.95558,34.238625,36.65555556
https://xa.lianjia.com/zufang/XA1581629444953473024.html,整租·佳和苑 2室2厅 南/北,整租,2室2厅1,100,2200,820m,碑林,南稍门,西安市碑林区佳和苑,108.955792,34.243477,22
https://xa.lianjia.com/zufang/XA1615320602896236544.html,合租·学府首座 4居室 南卧,合租,4室0厅1,25,950,644m,碑林,城东,西安市碑林区学府首座,108.996695,34.249715,38
https://xa.lianjia.com/zufang/XA1583080359841497088.html,整租·金色城市 2室1厅 西北,整租,2室1厅1,85,2300,413m,碑林,南稍门,西安市碑林区金色城市,108.959344,34.250987,27.05882353
https://xa.lianjia.com/zufang/XA1583023721533145088.html,整租·陕西省体育厂家属院 2室1厅 南/北,整租,2室1厅1,60,2300,None,碑林,南稍门,西安市碑林区陕西省体育厂家属院,116.420054,39.979179,38.33333333
https://xa.lianjia.com/zufang/XA1583373137611849728.html,整租·中贸广场 2室1厅 西,整租,2室1厅1,70,3000,217m,碑林,南稍门,西安市碑林区中贸广场,108.952082,34.248943,42.85714286
https://xa.lianjia.com/zufang/XA1583328291773743104.html,整租·南沙世纪花园 1室1厅 北,整租,1室1厅1,52,1900,475m,碑林,城东,西安市碑林区南沙世纪花园,108.999052,34.248911,36.53846154
https://xa.lianjia.com/zufang/XA1581491130476789760.html,整租·骊马豪城 1室1厅 西南,整租,1室1厅1,60,2000,769m,碑林,南稍门,西安市碑林区骊马豪城,108.956278,34.242744,33.33333333
https://xa.lianjia.com/zufang/XA1581854413226508288.html,整租·中贸广场 1室1厅 东,整租,1室1厅0,204,13800,217m,碑林,南稍门,西安市碑林区中贸广场,108.952082,34.248943,67.64705882
https://xa.lianjia.com/zufang/XA1581890384894623744.html,整租·省科斜家属院 2室1厅 南/北,整租,2室1厅1,70,2000,861m,碑林,李家村,西安市碑林区省科斜家属院,108.946974,34.263047,28.57142857
https://xa.lianjia.com/zufang/XA1581958191703392256.html,整租·西部建筑抗震勘察设计研究院家属院 2室1厅 南,整租,2室1厅1,70,1700,746m,碑林,李家村,西安市碑林区西部建筑抗震勘察设计研究院家属院,108.972973,34.253014,24.28571429
https://xa.lianjia.com/zufang/XA1583027779153166336.html,整租·西安工程大学西家属区南院 3室1厅 南/北,整租,3室1厅1,100,1900,1062m,碑林,城东,西安市碑林区西安工程大学西家属区南院,108.996759,34.261628,19
https://xa.lianjia.com/zufang/XA1583042796451790848.html,整租·宏信国际花园 1室0厅 西,整租,1室0厅1,43,2500,321m,碑林,南稍门,西安市碑林区宏信国际花园,108.9572,34.256363,58.13953488
https://xa.lianjia.com/zufang/XA1602992149798846464.html,整租·交大二村 4室2厅 南/北,整租,4室2厅2,156,5000,112m,碑林,城东,西安市碑林区交大二村,108.999699,34.255301,32.05128205
https://xa.lianjia.com/zufang/XA1604016067741483008.html,整租·大话南门 2室1厅 东,整租,2室1厅1,90,3300,915m,碑林,南稍门,西安市碑林区大话南门,108.954973,34.246207,36.66666667
https://xa.lianjia.com/zufang/XA2707177820874358784.html,合租·西荷花园 4居室 南卧,合租,4室1厅1,26,750,856m,碑林,黄雁村,西安市碑林区西荷花园,108.932285,34.242085,28.84615385
https://xa.lianjia.com/zufang/XA2729520739014418432.html,合租·泰华世纪新城Ⅱ 3居室 南卧,合租,3室1厅1,20,1200,79m,碑林,李家村,西安市碑林区泰华世纪新城Ⅱ,108.961415,34.248239,60
https://xa.lianjia.com/zufang/XA2758568039665909760.html,合租·西关新苑 5居室 南卧,合租,5室1厅2,30,870,None,碑林,城西,西安市碑林区西关新苑,108.921719,34.256247,29
https://xa.lianjia.com/zufang/XA1604070022165037056.html,整租·中贸广场 1室1厅 东,整租,1室1厅1,45,2250,217m,碑林,南稍门,西安市碑林区中贸广场,108.952082,34.248943,50
https://xa.lianjia.com/zufang/XA1603683847470317568.html,整租·中贸广场 1室1厅 西,整租,1室1厅1,65,2700,217m,碑林,南稍门,西安市碑林区中贸广场,108.952082,34.248943,41.53846154
https://xa.lianjia.com/zufang/XA1603734360681349120.html,整租·白云小区 2室1厅 南,整租,2室1厅1,80,1600,627m,碑林,城西,西安市碑林区白云小区,108.925526,34.244257,20
https://xa.lianjia.com/zufang/XA1603351819919032320.html,整租·盛龙广场太白苑 2室1厅 东,整租,2室1厅1,83,2800,1149m,碑林,黄雁村,西安市碑林区盛龙广场太白苑,108.931456,34.239619,33.73493976
https://xa.lianjia.com/zufang/XA2758615503760269312.html,合租·东窑坊 5居室 南卧,合租,5室0厅1,17,680,646m,碑林,城东,西安市碑林区东窑坊,109.00171,34.272028,40
https://xa.lianjia.com/zufang/XA1603766390324461568.html,整租·乐居场正街152号 2室0厅 南/北,整租,2室0厅1,55.23,1000,815m,碑林,城东,西安市碑林区乐居场正街152号,108.981982,34.252452,18.10610176
https://xa.lianjia.com/zufang/XA1604145021928341504.html,整租·泰华世纪新城1期 3室1厅 东南,整租,3室1厅1,103,3300,232m,碑林,李家村,西安市碑林区泰华世纪新城1期,108.961415,34.248239,32.03883495
https://xa.lianjia.com/zufang/XA1602600791393173504.html,整租·卧龙巷小区 2室1厅 北,整租,2室1厅1,70,1700,None,碑林,城东,西安市碑林区卧龙巷小区,108.983335,34.261298,24.28571429
https://xa.lianjia.com/zufang/XA1602528914872205312.html,整租·西荷花园 2室2厅 东南,整租,2室2厅1,94,2600,856m,碑林,黄雁村,西安市碑林区西荷花园,108.932285,34.242085,27.65957447
https://xa.lianjia.com/zufang/XA1602591025879056384.html,整租·粉巷一号 1室0厅 东,整租,1室0厅1,45,2100,1165m,碑林,城内,西安市碑林区粉巷一号,108.945915,34.26194,46.66666667
https://xa.lianjia.com/zufang/XA1602639664865345536.html,整租·大话南门 1室0厅 南,整租,1室0厅1,46.94,2500,915m,碑林,南稍门,西安市碑林区大话南门,108.954973,34.246207,53.25948019
https://xa.lianjia.com/zufang/XA1602638697730146304.html,整租·长安大街3号 1室0厅 北,整租,1室0厅1,40,2050,259m,碑林,南稍门,西安市碑林区长安大街3号,108.95558,34.238625,51.25
https://xa.lianjia.com/zufang/XA1602924222198317056.html,整租·泰华金汇时代 2室2厅 东,整租,2室2厅1,79.92,3000,214m,碑林,城西,西安市碑林区泰华金汇时代,108.929428,34.249918,37.53753754
https://xa.lianjia.com/zufang/XA2738962896821698560.html,合租·西荷花园 4居室 南卧,合租,4室1厅1,16,502,962m,碑林,黄雁村,西安市碑林区西荷花园,108.932285,34.242085,31.375
https://xa.lianjia.com/zufang/XA1602935579232698368.html,整租·旺园大厦 2室1厅 东南/南,整租,2室1厅1,131.9,2500,1088m,碑林,黄雁村,西安市碑林区旺园大厦,108.944158,34.25658,18.95375284
https://xa.lianjia.com/zufang/XA2890436727158079488.html,合租·嘉怡豪庭 3居室 南卧,合租,3室1厅1,25,900,None,碑林,南稍门,西安市碑林区嘉怡豪庭,108.954704,34.240662,36
https://xa.lianjia.com/zufang/XA1618628729221677056.html,合租·大话南门 3居室 东卧,合租,3室1厅1,22,900,None,碑林,南稍门,西安市碑林区大话南门,108.954973,34.246207,40.90909091
https://xa.lianjia.com/zufang/XA1618628750222557184.html,合租·大话南门 3居室 西卧,合租,3室1厅1,15,700,None,碑林,南稍门,西安市碑林区大话南门,108.954973,34.246207,46.66666667
https://xa.lianjia.com/zufang/XA1618903480527749120.html,合租·世家星苑 4居室 南卧,合租,4室1厅2,23,1469,591m,碑林,南稍门,西安市碑林区世家星苑,108.954113,34.251819,63.86956522
https://xa.lianjia.com/zufang/XA1618904679763148800.html,整租·兰蒂斯城1期 2室1厅 南,整租,2室1厅1,90,2350,474m,碑林,城东,西安市碑林区兰蒂斯城1期,108.995852,34.250943,26.11111111
https://xa.lianjia.com/zufang/XA1618825924411654144.html,合租·景寓学府东区 3居室 南卧,合租,3室1厅1,26,750,None,碑林,城西,西安市碑林区景寓学府东区,108.925526,34.253931,28.84615385
https://xa.lianjia.com/zufang/XA1618934682773094400.html,合租·盛龙广场太白苑 4居室 南卧,合租,4室1厅2,28,650,1149m,碑林,黄雁村,西安市碑林区盛龙广场太白苑,108.931456,34.239619,23.21428571
https://xa.lianjia.com/zufang/XA1602942551038361600.html,整租·宏信国际花园 1室0厅 南,整租,1室0厅1,55,3000,321m,碑林,南稍门,西安市碑林区宏信国际花园,108.9572,34.256363,54.54545455
https://xa.lianjia.com/zufang/XA1603253779682033664.html,整租·粉巷一号 1室0厅 西,整租,1室0厅1,49,2200,1165m,碑林,城内,西安市碑林区粉巷一号,108.945915,34.26194,44.89795918
https://xa.lianjia.com/zufang/XA1602556457218211840.html,整租·尊域 2室2厅 东/北,整租,2室2厅2,115,3000,441m,碑林,城西,西安市碑林区尊域,108.929559,34.243492,26.08695652
https://xa.lianjia.com/zufang/XA1618206874325221376.html,整租·包装公司家属院 2室1厅 南/北,整租,2室1厅1,60,1600,692m,碑林,城东,西安市碑林区包装公司家属院,108.946974,34.263047,26.66666667
https://xa.lianjia.com/zufang/XA1612727957455896576.html,合租·嘉怡豪庭 3居室 南卧,合租,3室1厅1,20,900,None,碑林,南稍门,西安市碑林区嘉怡豪庭,108.954704,34.240662,45
https://xa.lianjia.com/zufang/XA1618483029443870720.html,整租·乐居场小区A4区 2室1厅 东南,整租,2室1厅1,85,2400,796m,碑林,城东,西安市碑林区乐居场小区A4区,108.984892,34.251427,28.23529412
https://xa.lianjia.com/zufang/XA1618495271564476416.html,整租·六三一研究所生活区 3室0厅 南/北,整租,3室0厅1,64,3500,300m,碑林,城西,西安市碑林区六三一研究所生活区,108.927627,34.248135,54.6875
https://xa.lianjia.com/zufang/XA1612659473933926400.html,合租·翡翠明珠 4居室 南卧,合租,4室1厅2,20,899,None,碑林,南稍门,西安市碑林区翡翠明珠,108.95447,34.243805,44.95
https://xa.lianjia.com/zufang/XA1618208607373885440.html,整租·宏信国际花园 1室1厅 东,整租,1室1厅1,30,1800,321m,碑林,南稍门,西安市碑林区宏信国际花园,108.9572,34.256363,60
https://xa.lianjia.com/zufang/XA1618243393081573376.html,整租·长安大街3号 2室1厅 南,整租,2室1厅1,60,2500,259m,碑林,南稍门,西安市碑林区长安大街3号,108.95558,34.238625,41.66666667
https://xa.lianjia.com/zufang/XA1613865802719559680.html,整租·高山流水星座 1室1厅 南,整租,1室1厅1,55,2184,453m,碑林,城东,西安市碑林区高山流水星座,109.002494,34.261918,39.70909091
https://xa.lianjia.com/zufang/XA1618235697666195456.html,整租·东屿枫舍 2室2厅 西,整租,2室2厅2,121,2800,None,碑林,城东,西安市碑林区东屿枫舍,108.979715,34.263221,23.14049587
https://xa.lianjia.com/zufang/XA1618248474199851008.html,整租·翡翠明珠 1室0厅 南,整租,1室0厅1,55,2500,375m,碑林,南稍门,西安市碑林区翡翠明珠,108.95447,34.243805,45.45454545
https://xa.lianjia.com/zufang/XA1613866630708723712.html,整租·高山流水星座 1室1厅 南,整租,1室1厅1,55,2184,453m,碑林,城东,西安市碑林区高山流水星座,109.002494,34.261918,39.70909091
https://xa.lianjia.com/zufang/XA1615547686134480896.html,合租·西号巷14号 3居室 南卧,合租,3室1厅1,15,800,None,碑林,城内,西安市碑林区西号巷14号,108.963897,34.2612,53.33333333
https://xa.lianjia.com/zufang/XA1618523012527554560.html,整租·大话南门 2室1厅 南,整租,2室1厅1,108,3500,915m,碑林,南稍门,西安市碑林区大话南门,108.954973,34.246207,32.40740741
https://xa.lianjia.com/zufang/XA1618523979557896192.html,整租·景寓学府东区 1室1厅 西北,整租,1室1厅1,48,2100,1078m,碑林,城西,西安市碑林区景寓学府东区,108.925526,34.253931,43.75
https://xa.lianjia.com/zufang/XA1618605169145020416.html,整租·景寓学府东区 3室1厅 东南,整租,3室1厅1,81,3000,1078m,碑林,城西,西安市碑林区景寓学府东区,108.925526,34.253931,37.03703704
https://xa.lianjia.com/zufang/XA1618604462715174912.html,整租·消防家属院 2室1厅 南,整租,2室1厅1,72,1600,589m,碑林,城东,西安市碑林区消防家属院,109.001404,34.270315,22.22222222
https://xa.lianjia.com/zufang/XA1618623102244093952.html,整租·大话南门 1室0厅 北,整租,1室0厅1,35,1800,915m,碑林,南稍门,西安市碑林区大话南门,108.954973,34.246207,51.42857143
https://xa.lianjia.com/zufang/XA1615320603252752384.html,合租·学府首座 4居室 东卧,合租,4室0厅1,18,750,644m,碑林,城东,西安市碑林区学府首座,108.996695,34.249715,41.66666667
https://xa.lianjia.com/zufang/XA1616280301229572096.html,合租·翡翠明珠 3居室 南卧,合租,3室1厅1,20,750,None,碑林,南稍门,西安市碑林区翡翠明珠,108.95447,34.243805,37.5
https://xa.lianjia.com/zufang/XA1618616197413076992.html,整租·陕安北苑小区 2室1厅 南/北,整租,2室1厅1,65,1500,260m,碑林,黄雁村,西安市碑林区陕安北苑小区,108.939663,34.249707,23.07692308
https://xa.lianjia.com/zufang/XA1618559039367544832.html,整租·柿园坊东区 2室1厅 南/北,整租,2室1厅1,72,1400,1148m,碑林,城东,西安市碑林区柿园坊东区,108.989548,34.264227,19.44444444
https://xa.lianjia.com/zufang/XA1616004993570045952.html,整租·长安大街3号 1室2厅 南,整租,1室2厅1,65.03,2450,None,碑林,南稍门,西安市碑林区长安大街3号,108.95558,34.238625,37.67491927
https://xa.lianjia.com/zufang/XA1618578195563413504.html,整租·乐居场小区A4区 2室1厅 北,整租,2室1厅1,65,1800,796m,碑林,城东,西安市碑林区乐居场小区A4区,108.984892,34.251427,27.69230769
https://xa.lianjia.com/zufang/XA1618836000526565376.html,整租·学府首座南沙社区 2室2厅 西,整租,2室2厅1,70,2300,391m,碑林,城东,西安市碑林区学府首座南沙社区,108.99944,34.250486,32.85714286
https://xa.lianjia.com/zufang/XA1615988679690420224.html,整租·长安大街3号 1室1厅 南,整租,1室1厅0,45.08,2300,583m,碑林,南稍门,西安市碑林区长安大街3号,108.95558,34.238625,51.02040816
https://xa.lianjia.com/zufang/XA1618850996551680000.html,整租·德福巷 2室1厅 南/北,整租,2室1厅1,70,1500,699m,碑林,城内,西安市碑林区德福巷,108.950368,34.260156,21.42857143
https://xa.lianjia.com/zufang/XA1617118355330695168.html,合租·世家星苑 4居室 南卧,合租,4室0厅2,20,1036,591m,碑林,南稍门,西安市碑林区世家星苑,108.954113,34.251819,51.8
https://xa.lianjia.com/zufang/XA1618892791616634880.html,整租·外运家属院 2室1厅 南/北,整租,2室1厅1,75,1200,None,碑林,城东,西安市碑林区外运家属院,108.991878,34.26851,16
https://xa.lianjia.com/zufang/XA1575707667727384576.html,整租·尚城公馆 2室1厅 南,整租,2室1厅1,92,2800,568m,碑林,南稍门,西安市碑林区尚城公馆,108.95775,34.244839,30.43478261
https://xa.lianjia.com/zufang/XA2724430498603466752.html,合租·保吉巷小区 3居室 东卧,合租,3室1厅1,15,700,None,碑林,城内,西安市碑林区保吉巷小区,108.944095,34.259911,46.66666667
https://xa.lianjia.com/zufang/XA2650591545942097920.html,合租·东窑坊 4居室 东卧,合租,4室1厅1,18,538,583m,碑林,城东,西安市碑林区东窑坊,109.00171,34.272028,29.88888889
https://xa.lianjia.com/zufang/XA1575677867151327232.html,整租·省设计院家属院 1室0厅 南,整租,1室0厅1,23,1000,136m,碑林,黄雁村,西安市碑林区省设计院家属院,108.938021,34.247651,43.47826087
https://xa.lianjia.com/zufang/XA1575762771318931456.html,整租·长征左邻右舍 3室2厅 东南,整租,3室2厅2,131.7,3800,562m,碑林,李家村,西安市碑林区长征左邻右舍,108.946974,34.263047,28.85345482
https://xa.lianjia.com/zufang/XA2707180472504958976.html,合租·西荷花园 4居室 南卧,合租,4室1厅1,24,750,856m,碑林,黄雁村,西安市碑林区西荷花园,108.932285,34.242085,31.25
https://xa.lianjia.com/zufang/XA2612085072433512448.html,合租·西安公馆 4居室 东卧,合租,4室1厅2,23,1300,835m,碑林,南稍门,西安市碑林区西安公馆,108.946415,34.250533,56.52173913
https://xa.lianjia.com/zufang/XA1576094785951760384.html,整租·伊顿公馆西区 2室2厅 南,整租,2室2厅1,93,5500,576m,碑林,城西,西安市碑林区伊顿公馆西区,108.924327,34.244383,59.13978495
https://xa.lianjia.com/zufang/XA1574000566885941248.html,整租·粉巷一号 1室0厅 东,整租,1室0厅1,40,2000,1165m,碑林,城内,西安市碑林区粉巷一号,108.945915,34.26194,50
https://xa.lianjia.com/zufang/XA1611989863253409792.html,整租·兰蒂斯城1期 1室1厅 南,整租,1室1厅1,75,1900,474m,碑林,城东,西安市碑林区兰蒂斯城1期,108.995852,34.250943,25.33333333
https://xa.lianjia.com/zufang/XA1612003897461702656.html,整租·太白馨苑小区 2室1厅 东/南,整租,2室1厅1,86,2800,3m,碑林,黄雁村,西安市碑林区太白馨苑小区,108.931071,34.248398,32.55813953
https://xa.lianjia.com/zufang/XA2892999019763089408.html,合租·兰蒂斯城2期 6居室 东南卧,合租,6室0厅2,29,1050,211m,碑林,城东,西安市碑林区兰蒂斯城2期,109.000678,34.250559,36.20689655
https://xa.lianjia.com/zufang/XA1611999852261015552.html,整租·乐居场小区A2区 2室2厅 东南,整租,2室2厅1,95,2000,1098m,碑林,城东,西安市碑林区乐居场小区A2区,108.980937,34.255531,21.05263158
https://xa.lianjia.com/zufang/XA1611986771938115584.html,整租·都市凰庭 2室2厅 东/南/北,整租,2室2厅1,95.93,3000,884m,碑林,黄雁村,西安市碑林区都市凰庭,108.94207,34.253808,31.27280309
https://xa.lianjia.com/zufang/XA1612404210400231424.html,整租·北廓门小区 2室1厅 南,整租,2室1厅1,60,1200,625m,碑林,城东,西安市碑林区北廓门小区,108.982109,34.27285,20
https://xa.lianjia.com/zufang/XA1612404350649368576.html,整租·宏信国际花园 2室2厅 南,整租,2室2厅2,110,5800,321m,碑林,南稍门,西安市碑林区宏信国际花园,108.9572,34.256363,52.72727273
https://xa.lianjia.com/zufang/XA1612415175640481792.html,整租·交大三村 2室1厅 南,整租,2室1厅1,65,2400,133m,碑林,城东,西安市碑林区交大三村,109.001595,34.252409,36.92307692
https://xa.lianjia.com/zufang/XA1612416958504894464.html,整租·华龙太乙城 3室2厅 南/北,整租,3室2厅2,116,4800,651m,碑林,城东,西安市碑林区华龙太乙城,108.980086,34.241036,41.37931034
https://xa.lianjia.com/zufang/XA2740366087694073856.html,合租·长安大街3号 4居室 南卧,合租,4室1厅2,38,1100,None,碑林,南稍门,西安市碑林区长安大街3号,108.95558,34.238625,28.94736842
https://xa.lianjia.com/zufang/XA1612415267613179904.html,整租·伊顿公馆东区 1室1厅 西,整租,1室1厅1,49,2000,364m,碑林,城西,西安市碑林区伊顿公馆东区,108.928463,34.245644,40.81632653
https://xa.lianjia.com/zufang/XA1612417920367853568.html,整租·學林雅苑 2室1厅 西/北,整租,2室1厅1,89,2600,684m,碑林,黄雁村,西安市碑林区學林雅苑,108.933545,34.25165,29.21348315
https://xa.lianjia.com/zufang/XA2737481661813104640.html,合租·白庙公寓 3居室 南卧,合租,3室1厅1,21,800,909m,碑林,城西,西安市碑林区白庙公寓,108.926974,34.242312,38.0952381
https://xa.lianjia.com/zufang/XA2758570248025686016.html,合租·西关新苑 5居室 南卧,合租,5室1厅2,27,788,None,碑林,城西,西安市碑林区西关新苑,108.921719,34.256247,29.18518519
https://xa.lianjia.com/zufang/XA1571059351957798912.html,合租·东窑坊 5居室 北卧,合租,5室0厅2,10,501,583m,碑林,城东,西安市碑林区东窑坊,109.00171,34.272028,50.1
https://xa.lianjia.com/zufang/XA1612417620500283392.html,整租·中贸广场 2室1厅 东南,整租,2室1厅1,80,3200,217m,碑林,南稍门,西安市碑林区中贸广场,108.952082,34.248943,40
https://xa.lianjia.com/zufang/XA1612045939269173248.html,整租·西雅图翡翠城 2室2厅 东南,整租,2室2厅1,93,2500,None,碑林,城西,西安市碑林区西雅图翡翠城,116.376826,40.0083,26.88172043
https://xa.lianjia.com/zufang/XA1612081661321674752.html,整租·军工南院 2室2厅 北,整租,2室2厅1,91,2700,1138m,碑林,黄雁村,西安市碑林区军工南院,108.975343,34.240908,29.67032967
https://xa.lianjia.com/zufang/XA1571403514180009984.html,合租·东窑坊 5居室 南卧,合租,5室0厅2,10,501,583m,碑林,城东,西安市碑林区东窑坊,109.00171,34.272028,50.1
https://xa.lianjia.com/zufang/XA1612285565204430848.html,整租·中贸广场 1室0厅 东,整租,1室0厅1,55,2400,217m,碑林,南稍门,西安市碑林区中贸广场,108.952082,34.248943,43.63636364
https://xa.lianjia.com/zufang/XA1610839558394478592.html,合租·省新闻出版局家属院 5居室 南卧,合租,5室1厅1,15,700,1166m,碑林,城内,西安市碑林区省新闻出版局家属院,108.95018,34.260373,46.66666667
https://xa.lianjia.com/zufang/XA2852765179312078848.html,整租·兰蒂斯城1期 2室1厅 北,整租,2室1厅1,78,2700,474m,碑林,城东,西安市碑林区兰蒂斯城1期,108.995852,34.250943,34.61538462
https://xa.lianjia.com/zufang/XA2860906409267036160.html,整租·学府首座 2室2厅 西,整租,2室2厅1,136,6600,494m,碑林,城东,西安市碑林区学府首座,108.996695,34.249715,48.52941176
https://xa.lianjia.com/zufang/XA2861598421251530752.html,整租·中贸广场 2室1厅 西南,整租,2室1厅1,68,3100,217m,碑林,南稍门,西安市碑林区中贸广场,108.952082,34.248943,45.58823529
https://xa.lianjia.com/zufang/XA2861045046566715392.html,整租·东方紫韵 1室0厅 南,整租,1室0厅1,33,1500,86m,碑林,城内,西安市碑林区东方紫韵,108.970321,34.264526,45.45454545
https://xa.lianjia.com/zufang/XA2863021404180185088.html,整租·测绘局家属楼 8室1厅 东/西,整租,8室1厅1,205,10000,358m,碑林,李家村,西安市碑林区测绘局家属楼,108.961953,34.246835,48.7804878
https://xa.lianjia.com/zufang/XA2852988025485934592.html,整租·边家村小区 2室1厅 西/西北,整租,2室1厅1,85,3000,380m,碑林,黄雁村,西安市碑林区边家村小区,108.933533,34.242392,35.29411765
https://xa.lianjia.com/zufang/XA2853452607400181760.html,整租·珠江时代广场 1室0厅 西,整租,1室0厅1,50.67,3000,201m,碑林,南稍门,西安市碑林区珠江时代广场,108.955197,34.255113,59.20663114
https://xa.lianjia.com/zufang/XA2853517484173574144.html,整租·伊顿8号公馆 2室1厅 南,整租,2室1厅1,88,4700,695m,碑林,城西,西安市碑林区伊顿8号公馆,108.92428,34.244774,53.40909091
https://xa.lianjia.com/zufang/XA2855150102610182144.html,整租·西安公馆 1室0厅 北,整租,1室0厅0,30,650,796m,碑林,南稍门,西安市碑林区西安公馆,108.946415,34.250533,21.66666667
https://xa.lianjia.com/zufang/XA2876058258605613056.html,整租·南门国际 1室0厅 南,整租,1室0厅1,55,2500,None,碑林,南稍门,西安市碑林区南门国际,108.954961,34.251846,45.45454545
https://xa.lianjia.com/zufang/XA2876872905646948352.html,整租·华阳大厦 1室0厅 南,整租,1室0厅1,50,3000,None,碑林,南稍门,西安市碑林区华阳大厦,108.957253,34.256824,60
https://xa.lianjia.com/zufang/XA2878124382595850240.html,整租·绿地乐和城 1室0厅 西南,整租,1室0厅1,56.77,2000,659m,碑林,李家村,西安市碑林区绿地乐和城,108.974294,34.238132,35.22987493
https://xa.lianjia.com/zufang/XA2872377865058385920.html,整租·唐宁国际 3室2厅 南,整租,3室2厅1,130,6000,1177m,碑林,城内,西安市碑林区唐宁国际,108.942952,34.264592,46.15384615
https://xa.lianjia.com/zufang/XA2873079422347378688.html,整租·大话南门 2室1厅 西,整租,2室1厅0,188,17000,915m,碑林,南稍门,西安市碑林区大话南门,108.954973,34.246207,90.42553191
https://xa.lianjia.com/zufang/XA2873073465857425408.html,整租·长安壹栋 1室1厅 西,整租,1室1厅1,56,2400,729m,碑林,南稍门,西安市碑林区长安壹栋,108.955157,34.241415,42.85714286
https://xa.lianjia.com/zufang/XA2873787829496840192.html,整租·中贸广场 1室1厅 东,整租,1室1厅1,66,2800,217m,碑林,南稍门,西安市碑林区中贸广场,108.952082,34.248943,42.42424242
https://xa.lianjia.com/zufang/XA2881232955882348544.html,整租·功德小区 3室2厅 东南,整租,3室2厅2,142,4500,606m,碑林,李家村,西安市碑林区功德小区,108.978116,34.253374,31.69014085
https://xa.lianjia.com/zufang/XA2881723298448670720.html,新兴翰园 3室2厅 南/北,未知,3室2厅2,168,4200,460m,碑林,城东,西安市碑林区新兴翰园,108.991573,34.246999,25
https://xa.lianjia.com/zufang/XA2878110683939995648.html,整租·太白星座 2室2厅 南/西南,整租,2室2厅1,100,2800,376m,碑林,黄雁村,西安市碑林区太白星座,108.93049,34.250806,28
https://xa.lianjia.com/zufang/XA2878241130620141568.html,整租·西安市第三中学北家属院 3室2厅 南/北,整租,3室2厅2,101,1600,1040m,碑林,城东,西安市碑林区西安市第三中学北家属院,108.989581,34.271242,15.84158416
https://xa.lianjia.com/zufang/XA2878259463478059008.html,整租·丝绸二厂家属院 2室1厅 南,整租,2室1厅1,60,1000,1152m,碑林,城东,西安市碑林区丝绸二厂家属院,108.988607,34.267997,16.66666667
https://xa.lianjia.com/zufang/XA2878286393544032256.html,整租·大话南门 2室1厅 东南,整租,2室1厅1,76,2500,915m,碑林,南稍门,西安市碑林区大话南门,108.954973,34.246207,32.89473684
https://xa.lianjia.com/zufang/XA2899314672358391808.html,整租·高山流水星币传说 2室1厅 东北,整租,2室1厅1,71.36,2200,246m,碑林,城东,西安市碑林区高山流水星币传说,109.001812,34.263249,30.82959641
https://xa.lianjia.com/zufang/XA2904340289508614144.html,整租·陕安北苑小区 2室1厅 南/北,整租,2室1厅1,81.62,2100,260m,碑林,黄雁村,西安市碑林区陕安北苑小区,108.939663,34.249707,25.72898799
https://xa.lianjia.com/zufang/XA2904879099036311552.html,整租·李家村万达广场 1室1厅 南,整租,1室1厅1,51,1900,401m,碑林,李家村,西安市碑林区李家村万达广场,108.968448,34.249853,37.25490196
https://xa.lianjia.com/zufang/XA2901332550335340544.html,整租·尚书房 2室2厅 南/西,整租,2室2厅1,91,3300,145m,碑林,城东,西安市碑林区尚书房,108.982723,34.248153,36.26373626
https://xa.lianjia.com/zufang/XA2900862724466540544.html,整租·珠江时代广场 1室0厅 东,整租,1室0厅1,47.81,2500,201m,碑林,南稍门,西安市碑林区珠江时代广场,108.955197,34.255113,52.29031583
https://xa.lianjia.com/zufang/XA2905100274325012480.html,整租·陕安北苑小区 2室1厅 南/北,整租,2室1厅1,75,2400,260m,碑林,黄雁村,西安市碑林区陕安北苑小区,108.939663,34.249707,32
https://xa.lianjia.com/zufang/XA2636972639821758464.html,合租·帝源豪庭大厦 4居室 南卧,合租,4室1厅2,16,760,612m,碑林,城东,西安市碑林区帝源豪庭大厦,108.999973,34.248493,47.5
https://xa.lianjia.com/zufang/XA1619205177254871040.html,整租·高山流水星座 1室0厅 南,整租,1室0厅1,55,2184,None,碑林,城东,西安市碑林区高山流水星座,109.002494,34.261918,39.70909091
https://xa.lianjia.com/zufang/XA1619204755819593728.html,整租·高山流水星座 1室0厅 南,整租,1室0厅1,55,2184,None,碑林,城东,西安市碑林区高山流水星座,109.002494,34.261918,39.70909091
https://xa.lianjia.com/zufang/XA1564961260305383424.html,整租·伊顿公馆东区 1室0厅 东,整租,1室0厅1,35,2000,364m,碑林,城西,西安市碑林区伊顿公馆东区,108.928463,34.245644,57.14285714
https://xa.lianjia.com/zufang/XA2889786279577255936.html,整租·中贸广场 1室1厅 西,整租,1室1厅1,55,2700,217m,碑林,南稍门,西安市碑林区中贸广场,108.952082,34.248943,49.09090909
https://xa.lianjia.com/zufang/XA2881764917563113472.html,整租·中贸广场 3室2厅 南,整租,3室2厅2,170,9000,217m,碑林,南稍门,西安市碑林区中贸广场,108.952082,34.248943,52.94117647
https://xa.lianjia.com/zufang/XA2609970193585414144.html,合租·帝源豪庭大厦 5居室 南卧,合租,5室1厅2,16,780,488m,碑林,城东,西安市碑林区帝源豪庭大厦,108.999973,34.248493,48.75
https://xa.lianjia.com/zufang/XA2634717631374172160.html,合租·西荷花园 4居室 南卧,合租,4室1厅1,14,760,862m,碑林,黄雁村,西安市碑林区西荷花园,108.932285,34.242085,54.28571429
https://xa.lianjia.com/zufang/XA2882591442545680384.html,整租·伊顿公馆西区 2室1厅 南,整租,2室1厅1,102,5300,576m,碑林,城西,西安市碑林区伊顿公馆西区,108.924327,34.244383,51.96078431
https://xa.lianjia.com/zufang/XA1619179946427547648.html,合租·优座华城 4居室 南卧,合租,4室1厅1,30,999,728m,碑林,黄雁村,西安市碑林区优座华城,108.932306,34.243003,33.3
https://xa.lianjia.com/zufang/XA2882621910405873664.html,整租·摩登主场 3室2厅 南/北,整租,3室2厅2,118,3900,938m,碑林,南稍门,西安市碑林区摩登主场,108.955377,34.244081,33.05084746
https://xa.lianjia.com/zufang/XA2889734416228696064.html,整租·龙渠堡102号 2室1厅 南/北,整租,2室1厅1,83,1250,None,碑林,城东,西安市碑林区龙渠堡102号,108.988034,34.263596,15.06024096
https://xa.lianjia.com/zufang/XA2890421848494055424.html,整租·新旅城 1室0厅 西,整租,1室0厅1,44.27,1900,715m,碑林,李家村,西安市碑林区新旅城,108.965556,34.242714,42.91845494
https://xa.lianjia.com/zufang/XA2890459679447072768.html,整租·教委家属院 2室1厅 南,整租,2室1厅1,80,2800,None,碑林,南稍门,西安市碑林区教委家属院,108.950696,34.25302,35
https://xa.lianjia.com/zufang/XA2886798121000501248.html,整租·恒佳尊者汇 1室0厅 西南,整租,1室0厅1,135,6450,182m,碑林,南稍门,西安市碑林区恒佳尊者汇,108.953655,34.239831,47.77777778
https://xa.lianjia.com/zufang/XA1619179945857122304.html,合租·优座华城 4居室 南卧,合租,4室1厅1,26,950,728m,碑林,黄雁村,西安市碑林区优座华城,108.932306,34.243003,36.53846154
https://xa.lianjia.com/zufang/XA2886986571172036608.html,整租·长安壹栋 1室1厅 南,整租,1室1厅1,59.88,2200,729m,碑林,南稍门,西安市碑林区长安壹栋,108.955157,34.241415,36.74014696
https://xa.lianjia.com/zufang/XA2887698771171344384.html,整租·建东街小区 3室2厅 南/北,整租,3室2厅1,103,2000,626m,碑林,城东,西安市碑林区建东街小区,108.981551,34.252689,19.41747573
https://xa.lianjia.com/zufang/XA2887159705682591744.html,整租·天伦盛世小区 2室1厅 南,整租,2室1厅2,156,7200,498m,碑林,李家村,西安市碑林区天伦盛世小区,108.962949,34.248303,46.15384615
https://xa.lianjia.com/zufang/XA2646947738519863296.html,合租·仁厚庄园 4居室 南卧,合租,4室1厅1,14,720,769m,碑林,城东,西安市碑林区仁厚庄园,108.999637,34.263455,51.42857143
https://xa.lianjia.com/zufang/XA2887186845362831360.html,整租·宏信国际花园 3室2厅 东北,整租,3室2厅2,135,6100,321m,碑林,南稍门,西安市碑林区宏信国际花园,108.9572,34.256363,45.18518519
https://xa.lianjia.com/zufang/XA1618548235868045312.html,整租·美美公寓 1室1厅 西北,整租,1室1厅1,42,1700,596m,碑林,南稍门,西安市碑林区美美公寓,108.958873,34.256123,40.47619048
https://xa.lianjia.com/zufang/XA1613024377194938368.html,整租·朱雀东坊西后地小区 3室2厅 南/北,整租,3室2厅1,60,1800,755m,碑林,南稍门,西安市碑林区朱雀东坊西后地小区,108.948664,34.253256,30
https://xa.lianjia.com/zufang/XA1613153813856780288.html,整租·大话南门 1室0厅 南,整租,1室0厅1,55,2200,915m,碑林,南稍门,西安市碑林区大话南门,108.954973,34.246207,40
https://xa.lianjia.com/zufang/XA1613137597847044096.html,整租·大话南门 1室0厅 西,整租,1室0厅1,55,2200,915m,碑林,南稍门,西安市碑林区大话南门,108.954973,34.246207,40
https://xa.lianjia.com/zufang/XA1613138066849923072.html,整租·翡翠明珠 1室0厅 南,整租,1室0厅1,55,2300,375m,碑林,南稍门,西安市碑林区翡翠明珠,108.95447,34.243805,41.81818182
https://xa.lianjia.com/zufang/XA1613459551640616960.html,整租·长安大街3号 1室0厅 南,整租,1室0厅1,50,2200,259m,碑林,南稍门,西安市碑林区长安大街3号,108.95558,34.238625,44
https://xa.lianjia.com/zufang/XA1613468303131410432.html,整租·建行家属院（城南） 2室2厅 南/北,整租,2室2厅1,98,2000,473m,碑林,黄雁村,西安市碑林区建行家属院（城南）,108.995211,34.2706,20.40816327
https://xa.lianjia.com/zufang/XA1613480637128245248.html,整租·荣城 3室2厅 南/北,整租,3室2厅1,100.61,3500,775m,碑林,南稍门,西安市碑林区荣城,108.957725,34.241127,34.78779445
https://xa.lianjia.com/zufang/XA2525887027451805696.html,合租·南沙世纪花园 3居室 东卧,合租,3室1厅1,12.88,950,475m,碑林,城东,西安市碑林区南沙世纪花园,108.999052,34.248911,73.75776398
https://xa.lianjia.com/zufang/XA1613174480148889600.html,整租·南门望城 2室1厅 西/北,整租,2室1厅1,68.88,3300,633m,碑林,南稍门,西安市碑林区南门望城,108.950908,34.252407,47.90940767
https://xa.lianjia.com/zufang/XA1613185680316301312.html,整租·景寓学府3号院 1室0厅 西,整租,1室0厅1,40,2000,1071m,碑林,城西,西安市碑林区景寓学府3号院,116.521471,39.939693,50
https://xa.lianjia.com/zufang/XA1613379405663436800.html,整租·大话南门 1室0厅 西,整租,1室0厅1,38,1700,915m,碑林,南稍门,西安市碑林区大话南门,108.954973,34.246207,44.73684211
https://xa.lianjia.com/zufang/XA1613366467019931648.html,整租·合能朱阙 1室1厅 西,整租,1室1厅1,37.5,2200,952m,碑林,黄雁村,西安市碑林区合能朱阙,108.944607,34.251461,58.66666667
https://xa.lianjia.com/zufang/XA1613383080347697152.html,整租·太白星座 2室1厅 西南,整租,2室1厅1,100.87,3200,376m,碑林,黄雁村,西安市碑林区太白星座,108.93049,34.250806,31.72400119
https://xa.lianjia.com/zufang/XA2825190977131003904.html,整租·互助路一号 1室1厅 南,整租,1室1厅1,60,2400,None,碑林,城东,西安市碑林区互助路一号,108.997159,34.265444,40
https://xa.lianjia.com/zufang/XA1613377325527728128.html,整租·幸福逸家 2室1厅 西,整租,2室1厅1,95,2400,None,碑林,城东,西安市碑林区幸福逸家,108.984037,34.265853,25.26315789
https://xa.lianjia.com/zufang/XA1613471021946372096.html,整租·仁厚庄园 2室1厅 北,整租,2室1厅1,65,2100,714m,碑林,城东,西安市碑林区仁厚庄园,108.999637,34.263455,32.30769231
https://xa.lianjia.com/zufang/XA1613478262820831232.html,整租·长安壹品 2室2厅 西南,整租,2室2厅1,87,2900,693m,碑林,黄雁村,西安市碑林区长安壹品,108.940225,34.241059,33.33333333
https://xa.lianjia.com/zufang/XA2552710388601339904.html,合租·西荷花园 4居室 南卧,合租,4室1厅1,13,930,862m,碑林,黄雁村,西安市碑林区西荷花园,108.932285,34.242085,71.53846154
https://xa.lianjia.com/zufang/XA2637591000557821952.html,合租·质监局家属院 4居室 南卧,合租,4室1厅2,15,750,None,碑林,城东,西安市碑林区质监局家属院,108.984738,34.256265,50
https://xa.lianjia.com/zufang/XA1613481486575468544.html,整租·大话南门 1室0厅 西,整租,1室0厅1,45,1900,915m,碑林,南稍门,西安市碑林区大话南门,108.954973,34.246207,42.22222222
https://xa.lianjia.com/zufang/XA2654983935234416640.html,合租·兰蒂斯城2期 4居室 南卧,合租,4室1厅1,14,950,1029m,碑林,城东,西安市碑林区兰蒂斯城2期,109.000678,34.250559,67.85714286
https://xa.lianjia.com/zufang/XA2655006778386808832.html,合租·兰蒂斯城2期 4居室 南卧,合租,4室1厅1,12,900,211m,碑林,城东,西安市碑林区兰蒂斯城2期,109.000678,34.250559,75
https://xa.lianjia.com/zufang/XA2673737215884140544.html,合租·兰蒂斯城1期 4居室 南卧,合租,4室1厅1,13,990,474m,碑林,城东,西安市碑林区兰蒂斯城1期,108.995852,34.250943,76.15384615
https://xa.lianjia.com/zufang/XA1613788483132850176.html,整租·公园人家 1室0厅 南,整租,1室0厅1,48,1800,540m,碑林,城东,西安市碑林区公园人家,109.001316,34.269033,37.5
https://xa.lianjia.com/zufang/XA2737502066128715776.html,合租·兰蒂斯城2期 4居室 南卧,合租,4室1厅2,16,950,211m,碑林,城东,西安市碑林区兰蒂斯城2期,109.000678,34.250559,59.375
https://xa.lianjia.com/zufang/XA1613482326501621760.html,整租·大话南门 1室0厅 西,整租,1室0厅1,40,1700,915m,碑林,南稍门,西安市碑林区大话南门,108.954973,34.246207,42.5
https://xa.lianjia.com/zufang/XA1613482929298604032.html,整租·哈佛印象 3室1厅 东/西,整租,3室1厅1,82,2800,386m,碑林,李家村,西安市碑林区哈佛印象,108.977903,34.244929,34.14634146
https://xa.lianjia.com/zufang/XA2739881556310237184.html,合租·兰蒂斯城2期 4居室 南卧,合租,4室1厅2,13,990,211m,碑林,城东,西安市碑林区兰蒂斯城2期,109.000678,34.250559,76.15384615
https://xa.lianjia.com/zufang/XA1613501538506899456.html,整租·盐店街8号院 3室2厅 南/北,整租,3室2厅1,130,4000,None,碑林,城内,西安市碑林区盐店街8号院,108.944917,34.263624,30.76923077
https://xa.lianjia.com/zufang/XA1610887781767184384.html,整租·长胜街108号 2室1厅 南/北,整租,2室1厅1,80,1700,364m,碑林,李家村,西安市碑林区长胜街108号,108.966517,34.25646,21.25
https://xa.lianjia.com/zufang/XA1611292982504325120.html,整租·北院住宅区 1室1厅 北,整租,1室1厅1,45,1500,709m,碑林,黄雁村,西安市碑林区北院住宅区,108.939714,34.25354,33.33333333
https://xa.lianjia.com/zufang/XA2636972639821758464.html,合租·帝源豪庭大厦 4居室 南卧,合租,4室1厅2,16,760,612m,碑林,城东,西安市碑林区帝源豪庭大厦,108.999973,34.248493,47.5
https://xa.lianjia.com/zufang/XA2758520971723292672.html,合租·东窑坊 4居室 南卧,合租,4室1厅1,24,840,583m,碑林,城东,西安市碑林区东窑坊,109.00171,34.272028,35
https://xa.lianjia.com/zufang/XA1611292673346371584.html,整租·宏信国际花园 4室0厅 南/西北,整租,4室0厅4,149,7200,321m,碑林,南稍门,西安市碑林区宏信国际花园,108.9572,34.256363,48.32214765
https://xa.lianjia.com/zufang/XA2628234980979122176.html,合租·东窑坊 4居室 南卧,合租,4室1厅1,12,680,583m,碑林,城东,西安市碑林区东窑坊,109.00171,34.272028,56.66666667
https://xa.lianjia.com/zufang/XA1611295167409553408.html,整租·艺华小区 2室2厅 南,整租,2室2厅1,81.57,1600,858m,碑林,南稍门,西安市碑林区艺华小区,108.958053,34.239593,19.61505455
https://xa.lianjia.com/zufang/XA1610931521256947712.html,整租·东窑坊 2室1厅 西,整租,2室1厅1,99,1800,577m,碑林,城东,西安市碑林区东窑坊,109.00171,34.272028,18.18181818
https://xa.lianjia.com/zufang/XA2574428451234643968.html,合租·帝源豪庭大厦 4居室 南卧,合租,4室1厅2,10,650,612m,碑林,城东,西安市碑林区帝源豪庭大厦,108.999973,34.248493,65
https://xa.lianjia.com/zufang/XA1610939835101478912.html,整租·华豪丽晶黄东社区 1室0厅 东,整租,1室0厅1,37,1900,25m,碑林,黄雁村,西安市碑林区华豪丽晶黄东社区,108.939359,34.246878,51.35135135
https://xa.lianjia.com/zufang/XA2647017381666496512.html,合租·帝源豪庭大厦 4居室 南卧,合租,4室1厅2,18,750,488m,碑林,城东,西安市碑林区帝源豪庭大厦,108.999973,34.248493,41.66666667
https://xa.lianjia.com/zufang/XA1610966541690470400.html,整租·长安大街3号 1室0厅 西,整租,1室0厅1,50,2300,259m,碑林,南稍门,西安市碑林区长安大街3号,108.95558,34.238625,46
https://xa.lianjia.com/zufang/XA1610958448541827072.html,含光路邮电住宅小区 2室2厅 南/北,未知,2室2厅1,78.69,2500,393m,碑林,黄雁村,西安市碑林区含光路邮电住宅小区,108.939813,34.25131,31.77023764
https://xa.lianjia.com/zufang/XA1616738178561998848.html,整租·中贸广场 1室1厅 东,整租,1室1厅1,65,3100,217m,碑林,南稍门,西安市碑林区中贸广场,108.952082,34.248943,47.69230769
https://xa.lianjia.com/zufang/XA2665945892284006400.html,合租·东窑坊 4居室 南卧,合租,4室1厅1,22,800,577m,碑林,城东,西安市碑林区东窑坊,109.00171,34.272028,36.36363636
https://xa.lianjia.com/zufang/XA1617105508810883072.html,整租·李家村万达广场 2室1厅 南,整租,2室1厅1,85,2700,401m,碑林,李家村,西安市碑林区李家村万达广场,108.968448,34.249853,31.76470588
https://xa.lianjia.com/zufang/XA1617011107103244288.html,整租·金叶长乐居 3室2厅 东南,整租,3室2厅1,96,2500,None,碑林,城东,西安市碑林区金叶长乐居,108.984762,34.26923,26.04166667
https://xa.lianjia.com/zufang/XA2634717631374172160.html,合租·西荷花园 4居室 南卧,合租,4室1厅1,14,760,862m,碑林,黄雁村,西安市碑林区西荷花园,108.932285,34.242085,54.28571429
https://xa.lianjia.com/zufang/XA1617110586259144704.html,整租·景寓学府东区 2室1厅 东南,整租,2室1厅1,65,2200,1078m,碑林,城西,西安市碑林区景寓学府东区,108.925526,34.253931,33.84615385
https://xa.lianjia.com/zufang/XA1617081511746469888.html,整租·陕西省友谊医院东住宅小区 1室1厅 南/北,整租,1室1厅1,47,1400,341m,碑林,黄雁村,西安市碑林区陕西省友谊医院东住宅小区,116.398533,39.891679,29.78723404
https://xa.lianjia.com/zufang/XA2620967030316343296.html,合租·学府首座 4居室 南卧,合租,4室1厅1,12,792,571m,碑林,城东,西安市碑林区学府首座,108.996695,34.249715,66
https://xa.lianjia.com/zufang/XA1617081122204680192.html,整租·西窑坊小区 2室1厅 南,整租,2室1厅1,59,1300,419m,碑林,城东,西安市碑林区西窑坊小区,108.997319,34.272159,22.03389831
https://xa.lianjia.com/zufang/XA1617088757951889408.html,整租·铁一局后村小区 2室1厅 南,整租,2室1厅1,67.35,2000,481m,碑林,李家村,西安市碑林区铁一局后村小区,108.97467,34.239183,29.6956199
https://xa.lianjia.com/zufang/XA1610208482458337280.html,合租·兰蒂斯城2期 4居室 南卧,合租,4室1厅1,18,920,1029m,碑林,城东,西安市碑林区兰蒂斯城2期,109.000678,34.250559,51.11111111
https://xa.lianjia.com/zufang/XA1617102312524742656.html,整租·学府首座南沙社区 2室1厅 北,整租,2室1厅1,80,2400,391m,碑林,城东,西安市碑林区学府首座南沙社区,108.99944,34.250486,30
https://xa.lianjia.com/zufang/XA1617100342313353216.html,整租·摩登主场 1室1厅 西,整租,1室1厅1,48,2300,938m,碑林,南稍门,西安市碑林区摩登主场,108.955377,34.244081,47.91666667
https://xa.lianjia.com/zufang/XA1617106715017216000.html,整租·长征左邻右舍 2室1厅 南,整租,2室1厅2,92.23,2700,562m,碑林,李家村,西安市碑林区长征左邻右舍,108.946974,34.263047,29.27463949
https://xa.lianjia.com/zufang/XA1616813996105531392.html,整租·幸福村小区 3室1厅 东南,整租,3室1厅1,65,1600,None,碑林,城西,西安市碑林区幸福村小区,108.946974,34.263047,24.61538462
https://xa.lianjia.com/zufang/XA1617003457888124928.html,整租·西关新苑 2室1厅 南,整租,2室1厅1,83.2,2600,None,碑林,城西,西安市碑林区西关新苑,108.921719,34.256247,31.25
https://xa.lianjia.com/zufang/XA1610210040306728960.html,合租·兰蒂斯城2期 4居室 南卧,合租,4室1厅1,10,680,1029m,碑林,城东,西安市碑林区兰蒂斯城2期,109.000678,34.250559,68
https://xa.lianjia.com/zufang/XA1617087381888827392.html,整租·宏信国际花园 1室0厅 南,整租,1室0厅1,55,2400,321m,碑林,南稍门,西安市碑林区宏信国际花园,108.9572,34.256363,43.63636364
https://xa.lianjia.com/zufang/XA1617093564351643648.html,整租·瓦窑小区 3室1厅 南/北,整租,3室1厅1,97,2300,991m,碑林,李家村,西安市碑林区瓦窑小区,108.964977,34.243951,23.71134021
https://xa.lianjia.com/zufang/XA2831783371582488576.html,合租·招商局广场 4居室 南卧,合租,4室1厅2,20,1050,None,碑林,城东,西安市碑林区招商局广场,108.980836,34.265269,52.5
https://xa.lianjia.com/zufang/XA1617394410255810560.html,整租·二环南路东段543号院 3室2厅 南/北,整租,3室2厅1,120,2500,910m,碑林,南稍门,西安市碑林区二环南路东段543号院,108.958538,34.23723,20.83333333
https://xa.lianjia.com/zufang/XA2831805785766633472.html,合租·招商局广场 4居室 南卧,合租,4室1厅2,22,1200,None,碑林,城东,西安市碑林区招商局广场,108.980836,34.265269,54.54545455
https://xa.lianjia.com/zufang/XA1617394140000026624.html,整租·宏信国际花园 1室1厅 南,整租,1室1厅1,56,2800,321m,碑林,南稍门,西安市碑林区宏信国际花园,108.9572,34.256363,50
https://xa.lianjia.com/zufang/XA2844912695294033920.html,合租·景寓学府西区 4居室 南卧,合租,4室1厅1,25,1050,None,碑林,城西,西安市碑林区景寓学府西区,116.418179,39.941273,42
https://xa.lianjia.com/zufang/XA2844912696007335936.html,合租·景寓学府西区 4居室 南卧,合租,4室1厅1,20,850,None,碑林,城西,西安市碑林区景寓学府西区,116.418179,39.941273,42.5
https://xa.lianjia.com/zufang/XA1617115652181458944.html,中贸广场 2室1厅 东,未知,2室1厅1,58,2800,217m,碑林,南稍门,西安市碑林区中贸广场,108.952082,34.248943,48.27586207
https://xa.lianjia.com/zufang/XA2852300845868400640.html,合租·西荷花园 3居室 西北卧,合租,3室1厅1,20,1000,856m,碑林,黄雁村,西安市碑林区西荷花园,108.932285,34.242085,50
https://xa.lianjia.com/zufang/XA2869444857854959616.html,整租·丰润国际公寓 1室1厅 南,整租,1室1厅1,39.08,2000,604m,碑林,城西,西安市碑林区丰润国际公寓,108.929528,34.242448,51.17707267
https://xa.lianjia.com/zufang/XA2872430133837299712.html,合租·海星未来城 4居室 南卧,合租,4室1厅1,32,1200,801m,碑林,城西,西安市碑林区海星未来城,108.928102,34.241314,37.5
https://xa.lianjia.com/zufang/XA1617139883963318272.html,整租·中贸广场 1室0厅 东南,整租,1室0厅0,100,6600,217m,碑林,南稍门,西安市碑林区中贸广场,108.952082,34.248943,66
https://xa.lianjia.com/zufang/XA1617148943659958272.html,整租·中贸广场 1室1厅 东,整租,1室1厅1,57.97,2800,217m,碑林,南稍门,西安市碑林区中贸广场,108.952082,34.248943,48.30084526
https://xa.lianjia.com/zufang/XA1617169946830176256.html,整租·刘家庄小区 2室1厅 南/北,整租,2室1厅1,55,1400,884m,碑林,城东,西安市碑林区刘家庄小区,108.986695,34.244342,25.45454545
https://xa.lianjia.com/zufang/XA1617365324775030784.html,整租·陕西省医药公司家属院 2室1厅 南/北,整租,2室1厅1,82,1600,None,碑林,城东,西安市碑林区陕西省医药公司家属院,108.986939,34.266968,19.51219512
https://xa.lianjia.com/zufang/XA1617352731352104960.html,整租·中贸广场 1室1厅 东南,整租,1室1厅1,61,2800,217m,碑林,南稍门,西安市碑林区中贸广场,108.952082,34.248943,45.90163934
https://xa.lianjia.com/zufang/XA1617819791228141568.html,整租·长乐坊小区 3室2厅 南/北,整租,3室2厅2,137,3300,579m,碑林,城东,西安市碑林区长乐坊小区,108.981769,34.269963,24.08759124
https://xa.lianjia.com/zufang/XA1617820947681640448.html,整租·恒佳格调 2室1厅 东南,整租,2室1厅1,85,2600,None,碑林,南稍门,西安市碑林区恒佳格调,108.955467,34.2452,30.58823529
https://xa.lianjia.com/zufang/XA1617820953423642624.html,整租·大话南门 1室1厅 南/北,整租,1室1厅1,54.65,2400,915m,碑林,南稍门,西安市碑林区大话南门,108.954973,34.246207,43.915828
https://xa.lianjia.com/zufang/XA1617822167074865152.html,整租·世贸大厦 1室1厅 北,整租,1室1厅1,70,1800,None,碑林,城东,西安市碑林区世贸大厦,108.981724,34.264419,25.71428571
https://xa.lianjia.com/zufang/XA2906612383159943168.html,合租·西荷花园 3居室 东卧,合租,3室1厅1,20,1000,944m,碑林,黄雁村,西安市碑林区西荷花园,108.932285,34.242085,50
https://xa.lianjia.com/zufang/XA2883233991454883840.html,整租·新旅城上东 2室1厅 南/西南,整租,2室1厅1,68,2400,None,碑林,李家村,西安市碑林区新旅城上东,108.973419,34.239018,35.29411765
https://xa.lianjia.com/zufang/XA2890654319109996544.html,整租·绿地乐和城 1室0厅 东,整租,1室0厅1,57.87,1750,659m,碑林,李家村,西安市碑林区绿地乐和城,108.974294,34.238132,30.24019354
https://xa.lianjia.com/zufang/XA1613391913921019904.html,合租·西安市财政局家属楼 5居室 南卧,合租,5室1厅1,22,800,843m,碑林,城内,西安市碑林区西安市财政局家属楼,108.954731,34.261454,36.36363636
https://xa.lianjia.com/zufang/XA2891357896208023552.html,整租·泰华金汇时代 3室0厅 东,整租,3室0厅1,76,3000,214m,碑林,城西,西安市碑林区泰华金汇时代,108.929428,34.249918,39.47368421
https://xa.lianjia.com/zufang/XA2891314242832056320.html,整租·伊顿公馆东区 3室1厅 东南,整租,3室1厅1,93,4300,364m,碑林,城西,西安市碑林区伊顿公馆东区,108.928463,34.245644,46.23655914
https://xa.lianjia.com/zufang/XA2891305838881021952.html,整租·伊顿公馆西区 3室2厅 南/北,整租,3室2厅2,134,6500,576m,碑林,城西,西安市碑林区伊顿公馆西区,108.924327,34.244383,48.50746269
https://xa.lianjia.com/zufang/XA2883425167076499456.html,整租·紫雁朗庭 3室1厅 南,整租,3室1厅1,130,3500,926m,碑林,南稍门,西安市碑林区紫雁朗庭,108.94979,34.250221,26.92307692
https://xa.lianjia.com/zufang/XA1613391297689681920.html,合租·西安市财政局家属楼 5居室 南卧,合租,5室1厅1,28,600,843m,碑林,城内,西安市碑林区西安市财政局家属楼,108.954731,34.261454,21.42857143
https://xa.lianjia.com/zufang/XA2883363949850394624.html,整租·世家星苑 2室1厅 东南,整租,2室1厅1,89.99,2800,591m,碑林,南稍门,西安市碑林区世家星苑,108.954113,34.251819,31.11456829
https://xa.lianjia.com/zufang/XA2884616428550897664.html,整租·华陆经九路小区 3室1厅 南/北,整租,3室1厅1,80,1700,647m,碑林,城东,西安市碑林区华陆经九路小区,108.98747,34.245201,21.25
https://xa.lianjia.com/zufang/XA2885342766794014720.html,整租·宏信国际花园 2室1厅 南,整租,2室1厅1,110,4300,321m,碑林,南稍门,西安市碑林区宏信国际花园,108.9572,34.256363,39.09090909
https://xa.lianjia.com/zufang/XA1613393354425368576.html,合租·西安市财政局家属楼 5居室 南卧,合租,5室1厅1,18,510,843m,碑林,城内,西安市碑林区西安市财政局家属楼,108.954731,34.261454,28.33333333
https://xa.lianjia.com/zufang/XA2885476850883371008.html,整租·老东窑坊 2室2厅 南,整租,2室2厅1,80,2000,413m,碑林,城东,西安市碑林区老东窑坊,109.00171,34.272028,25
https://xa.lianjia.com/zufang/XA2885613653795807232.html,整租·东窑坊 3室0厅 东北,整租,3室0厅1,88,2800,577m,碑林,城东,西安市碑林区东窑坊,109.00171,34.272028,31.81818182
https://xa.lianjia.com/zufang/XA2886209751543185408.html,整租·大话南门 1室0厅 东,整租,1室0厅1,55,2100,915m,碑林,南稍门,西安市碑林区大话南门,108.954973,34.246207,38.18181818
https://xa.lianjia.com/zufang/XA2758639947710996480.html,合租·凯旋城 4居室 南卧,合租,4室1厅2,28,1780,1102m,碑林,黄雁村,西安市碑林区凯旋城,108.933269,34.240563,63.57142857
https://xa.lianjia.com/zufang/XA2886164755871956992.html,整租·南门国际 1室1厅 东,整租,1室1厅1,43,2600,None,碑林,南稍门,西安市碑林区南门国际,108.954961,34.251846,60.46511628
https://xa.lianjia.com/zufang/XA2758639948675956736.html,合租·凯旋城 4居室 南卧,合租,4室1厅2,22,1200,1102m,碑林,黄雁村,西安市碑林区凯旋城,108.933269,34.240563,54.54545455
https://xa.lianjia.com/zufang/XA2886084228725088256.html,整租·兰蒂斯城3期 3室2厅 南,整租,3室2厅2,130,3600,427m,碑林,城东,西安市碑林区兰蒂斯城3期,108.998026,34.252037,27.69230769
https://xa.lianjia.com/zufang/XA2886241835678965760.html,整租·轩雨公寓 3室2厅 南/北,整租,3室2厅1,120,2100,825m,碑林,城西,西安市碑林区轩雨公寓,108.928745,34.252766,17.5
https://xa.lianjia.com/zufang/XA2756343443629277184.html,整租·顺城南路6号 5室3厅 南/北,整租,5室3厅3,258,18000,1001m,碑林,城内,西安市碑林区顺城南路6号,108.977432,34.258896,69.76744186
https://xa.lianjia.com/zufang/XA2760733950921154560.html,整租·学府首座 2室2厅 西北,整租,2室2厅1,74,2700,494m,碑林,城东,西安市碑林区学府首座,108.996695,34.249715,36.48648649
https://xa.lianjia.com/zufang/XA2793310563739385856.html,整租·新兴IN之家 3室2厅 南/北,整租,3室2厅1,143,3200,None,碑林,城东,西安市碑林区新兴IN之家,108.993711,34.268364,22.37762238
https://xa.lianjia.com/zufang/XA2761627118571372544.html,整租·长安公馆 1室0厅 东,整租,1室0厅1,67,3100,None,碑林,南稍门,西安市碑林区长安公馆,108.950622,34.255586,46.26865672
https://xa.lianjia.com/zufang/XA2799835459423830016.html,整租·景寓学府3号院 3室2厅 南/北,整租,3室2厅2,125,2100,1071m,碑林,城西,西安市碑林区景寓学府3号院,116.521471,39.939693,16.8
https://xa.lianjia.com/zufang/XA2758639952987160576.html,合租·凯旋城 4居室 东卧,合租,4室1厅2,22,1180,1102m,碑林,黄雁村,西安市碑林区凯旋城,108.933269,34.240563,53.63636364
https://xa.lianjia.com/zufang/XA2801996672790429696.html,整租·长安公馆 1室0厅 南,整租,1室0厅0,49,3100,None,碑林,南稍门,西安市碑林区长安公馆,108.950622,34.255586,63.26530612
https://xa.lianjia.com/zufang/XA2802879480300322816.html,整租·法院家属院 2室1厅 南/北,整租,2室1厅1,60,1800,892m,碑林,黄雁村,西安市碑林区法院家属院,108.963435,34.241757,30
https://xa.lianjia.com/zufang/XA2801427230021132288.html,整租·西窑坊小区 1室0厅 北,整租,1室0厅1,70,1000,419m,碑林,城东,西安市碑林区西窑坊小区,108.997319,34.272159,14.28571429
https://xa.lianjia.com/zufang/XA2767383920080601088.html,整租·边家村小区 2室2厅 东/西,整租,2室2厅1,80,2500,380m,碑林,黄雁村,西安市碑林区边家村小区,108.933533,34.242392,31.25
https://xa.lianjia.com/zufang/XA1579344482367700992.html,整租·宏信国际花园 3室2厅 南/北,整租,3室2厅2,138,6000,321m,碑林,南稍门,西安市碑林区宏信国际花园,108.9572,34.256363,43.47826087
https://xa.lianjia.com/zufang/XA1579695531972624384.html,整租·奥林匹克大厦 4室2厅 南,整租,4室2厅2,212,8000,1192m,碑林,南稍门,西安市碑林区奥林匹克大厦,108.952662,34.239302,37.73584906
https://xa.lianjia.com/zufang/XA1580895093311668224.html,整租·新旅城 1室0厅 南,整租,1室0厅1,52,2050,715m,碑林,李家村,西安市碑林区新旅城,108.965556,34.242714,39.42307692
https://xa.lianjia.com/zufang/XA1580900902158467072.html,整租·常春藤花园 1室0厅 南,整租,1室0厅1,41.03,1800,1002m,碑林,城东,西安市碑林区常春藤花园,108.996411,34.253655,43.87033878
https://xa.lianjia.com/zufang/XA1580900272144646144.html,整租·常春藤花园 1室0厅 南,整租,1室0厅1,41.06,1800,1002m,碑林,城东,西安市碑林区常春藤花园,108.996411,34.253655,43.83828544
https://xa.lianjia.com/zufang/XA1579813739530551296.html,整租·兰蒂斯城3期 1室0厅 南,整租,1室0厅1,40,1800,427m,碑林,城东,西安市碑林区兰蒂斯城3期,108.998026,34.252037,45
https://xa.lianjia.com/zufang/XA1616368026444103680.html,合租·东窑坊 5居室 南卧,合租,5室1厅2,38,1166,589m,碑林,城东,西安市碑林区东窑坊,109.00171,34.272028,30.68421053
https://xa.lianjia.com/zufang/XA1616344459774001152.html,合租·东窑坊 3居室 东卧,合租,3室1厅1,12,560,589m,碑林,城东,西安市碑林区东窑坊,109.00171,34.272028,46.66666667
https://xa.lianjia.com/zufang/XA1579796417931640832.html,整租·东新村小区 2室0厅 东南,整租,2室0厅1,60,1350,429m,碑林,南稍门,西安市碑林区东新村小区,108.958614,34.255381,22.5
https://xa.lianjia.com/zufang/XA1580423012677582848.html,整租·宏信国际花园 3室1厅 东,整租,3室1厅1,238.44,16500,321m,碑林,南稍门,西安市碑林区宏信国际花园,108.9572,34.256363,69.19979869
https://xa.lianjia.com/zufang/XA2881039654990118912.html,整租·云龙大厦 2室1厅 东/西南,整租,2室1厅1,130.5,3000,1004m,碑林,城内,西安市碑林区云龙大厦,108.959962,34.263883,22.98850575
https://xa.lianjia.com/zufang/XA2888429842788270080.html,整租·长安大街3号 2室1厅 南,整租,2室1厅1,101,4000,259m,碑林,南稍门,西安市碑林区长安大街3号,108.95558,34.238625,39.6039604
https://xa.lianjia.com/zufang/XA2889133680276537344.html,整租·尊域·嘉 1室0厅 北,整租,1室0厅1,62,2600,244m,碑林,城西,西安市碑林区尊域·嘉,108.929559,34.243492,41.93548387
https://xa.lianjia.com/zufang/XA2889786279577255936.html,整租·中贸广场 1室1厅 西,整租,1室1厅1,55,2700,217m,碑林,南稍门,西安市碑林区中贸广场,108.952082,34.248943,49.09090909
https://xa.lianjia.com/zufang/XA1616374575996600320.html,合租·东窑坊 5居室 东卧,合租,5室1厅1,12,1080,589m,碑林,城东,西安市碑林区东窑坊,109.00171,34.272028,90
https://xa.lianjia.com/zufang/XA2881764917563113472.html,整租·中贸广场 3室2厅 南,整租,3室2厅2,170,9000,217m,碑林,南稍门,西安市碑林区中贸广场,108.952082,34.248943,52.94117647
https://xa.lianjia.com/zufang/XA2882591442545680384.html,整租·伊顿公馆西区 2室1厅 南,整租,2室1厅1,102,5300,576m,碑林,城西,西安市碑林区伊顿公馆西区,108.924327,34.244383,51.96078431
https://xa.lianjia.com/zufang/XA2882621910405873664.html,整租·摩登主场 3室2厅 南/北,整租,3室2厅2,118,3900,938m,碑林,南稍门,西安市碑林区摩登主场,108.955377,34.244081,33.05084746
https://xa.lianjia.com/zufang/XA2889734416228696064.html,整租·龙渠堡102号 2室1厅 南/北,整租,2室1厅1,83,1250,None,碑林,城东,西安市碑林区龙渠堡102号,108.988034,34.263596,15.06024096
https://xa.lianjia.com/zufang/XA2890421848494055424.html,整租·新旅城 1室0厅 西,整租,1室0厅1,44.27,1900,715m,碑林,李家村,西安市碑林区新旅城,108.965556,34.242714,42.91845494
https://xa.lianjia.com/zufang/XA2889895684826472448.html,整租·尊域·嘉 3室2厅 南/北,整租,3室2厅1,138,8000,244m,碑林,城西,西安市碑林区尊域·嘉,108.929559,34.243492,57.97101449
https://xa.lianjia.com/zufang/XA2889972694169174016.html,整租·西雅图翡翠城 3室2厅 南/北,整租,3室2厅2,120,3200,None,碑林,城西,西安市碑林区西雅图翡翠城,116.376826,40.0083,26.66666667
https://xa.lianjia.com/zufang/XA2891443031419404288.html,整租·中国通信建设第二工程局中院住宅区 2室1厅 东/西,整租,2室1厅1,60,1700,556m,碑林,黄雁村,西安市碑林区中国通信建设第二工程局中院住宅区,108.939967,34.252963,28.33333333
https://xa.lianjia.com/zufang/XA2883233991454883840.html,整租·新旅城上东 2室1厅 南/西南,整租,2室1厅1,68,2400,None,碑林,李家村,西安市碑林区新旅城上东,108.973419,34.239018,35.29411765
https://xa.lianjia.com/zufang/XA2890654319109996544.html,整租·绿地乐和城 1室0厅 东,整租,1室0厅1,57.87,1750,659m,碑林,李家村,西安市碑林区绿地乐和城,108.974294,34.238132,30.24019354
https://xa.lianjia.com/zufang/XA2891357896208023552.html,整租·泰华金汇时代 3室0厅 东,整租,3室0厅1,76,3000,214m,碑林,城西,西安市碑林区泰华金汇时代,108.929428,34.249918,39.47368421
https://xa.lianjia.com/zufang/XA1616386026505240576.html,合租·东窑坊 4居室 南卧,合租,4室1厅1,12,640,589m,碑林,城东,西安市碑林区东窑坊,109.00171,34.272028,53.33333333
https://xa.lianjia.com/zufang/XA2891314242832056320.html,整租·伊顿公馆东区 3室1厅 东南,整租,3室1厅1,93,4300,364m,碑林,城西,西安市碑林区伊顿公馆东区,108.928463,34.245644,46.23655914
https://xa.lianjia.com/zufang/XA2891305838881021952.html,整租·伊顿公馆西区 3室2厅 南/北,整租,3室2厅2,134,6500,576m,碑林,城西,西安市碑林区伊顿公馆西区,108.924327,34.244383,48.50746269
https://xa.lianjia.com/zufang/XA2883425167076499456.html,整租·紫雁朗庭 3室1厅 南,整租,3室1厅1,130,3500,926m,碑林,南稍门,西安市碑林区紫雁朗庭,108.94979,34.250221,26.92307692
https://xa.lianjia.com/zufang/XA1610194797383909376.html,合租·南沙世纪花园 3居室 东卧,合租,3室1厅1,20,950,678m,碑林,城东,西安市碑林区南沙世纪花园,108.999052,34.248911,47.5
https://xa.lianjia.com/zufang/XA1618120415731777536.html,整租·常春藤东区 3室1厅 南,整租,3室1厅1,110,3300,597m,碑林,城东,西安市碑林区常春藤东区,108.999134,34.25337,30
https://xa.lianjia.com/zufang/XA1618123984392421376.html,整租·陕西体育馆家属院 3室2厅 南/北,整租,3室2厅2,130,2800,462m,碑林,南稍门,西安市碑林区陕西体育馆家属院,108.956016,34.25187,21.53846154
https://xa.lianjia.com/zufang/XA1618140809079554048.html,整租·宏信国际花园 2室1厅 西南,整租,2室1厅1,90,3800,321m,碑林,南稍门,西安市碑林区宏信国际花园,108.9572,34.256363,42.22222222
https://xa.lianjia.com/zufang/XA1610202161960976384.html,合租·兰蒂斯城1期 3居室 东卧,合租,3室1厅1,24,1150,542m,碑林,城东,西安市碑林区兰蒂斯城1期,108.995852,34.250943,47.91666667
https://xa.lianjia.com/zufang/XA1612657853141614592.html,合租·兰蒂斯城2期 3居室 东卧,合租,3室1厅1,20,1000,1029m,碑林,城东,西安市碑林区兰蒂斯城2期,109.000678,34.250559,50
https://xa.lianjia.com/zufang/XA1618250750503157760.html,整租·九锦台 1室0厅 南,整租,1室0厅1,41,2400,824m,碑林,黄雁村,西安市碑林区九锦台,108.940303,34.239037,58.53658537
https://xa.lianjia.com/zufang/XA1618406587917926400.html,整租·边家村小区 3室2厅 南/北,整租,3室2厅1,110,2100,380m,碑林,黄雁村,西安市碑林区边家村小区,108.933533,34.242392,19.09090909
https://xa.lianjia.com/zufang/XA1618200260243357696.html,整租·新旅城 2室1厅 西,整租,2室1厅1,77.42,3000,715m,碑林,李家村,西安市碑林区新旅城,108.965556,34.242714,38.74967709
https://xa.lianjia.com/zufang/XA1618483029443870720.html,整租·乐居场小区A4区 2室1厅 东南,整租,2室1厅1,85,2400,796m,碑林,城东,西安市碑林区乐居场小区A4区,108.984892,34.251427,28.23529412
https://xa.lianjia.com/zufang/XA1612657853208723456.html,合租·兰蒂斯城2期 3居室 西卧,合租,3室1厅1,18,980,1029m,碑林,城东,西安市碑林区兰蒂斯城2期,109.000678,34.250559,54.44444444
https://xa.lianjia.com/zufang/XA1618495271564476416.html,整租·六三一研究所生活区 3室0厅 南/北,整租,3室0厅1,64,3500,300m,碑林,城西,西安市碑林区六三一研究所生活区,108.927627,34.248135,54.6875
https://xa.lianjia.com/zufang/XA1618208607373885440.html,整租·宏信国际花园 1室1厅 东,整租,1室1厅1,30,1800,321m,碑林,南稍门,西安市碑林区宏信国际花园,108.9572,34.256363,60
https://xa.lianjia.com/zufang/XA1612663437718978560.html,合租·学府首座南沙社区 4居室 西卧,合租,4室1厅1,16,650,822m,碑林,城东,西安市碑林区学府首座南沙社区,108.99944,34.250486,40.625
https://xa.lianjia.com/zufang/XA1612666656436256768.html,合租·学府首座南沙社区 3居室 东卧,合租,3室1厅1,17,850,870m,碑林,城东,西安市碑林区学府首座南沙社区,108.99944,34.250486,50
https://xa.lianjia.com/zufang/XA1612671601319346176.html,合租·兰蒂斯城2期 4居室 东卧,合租,4室1厅2,18,900,1029m,碑林,城东,西安市碑林区兰蒂斯城2期,109.000678,34.250559,50
https://xa.lianjia.com/zufang/XA1612677155190210560.html,合租·学府首座南沙社区 3居室 东卧,合租,3室1厅1,21,950,870m,碑林,城东,西安市碑林区学府首座南沙社区,108.99944,34.250486,45.23809524
https://xa.lianjia.com/zufang/XA1618243393081573376.html,整租·长安大街3号 2室1厅 南,整租,2室1厅1,60,2500,259m,碑林,南稍门,西安市碑林区长安大街3号,108.95558,34.238625,41.66666667
https://xa.lianjia.com/zufang/XA1618235697666195456.html,整租·东屿枫舍 2室2厅 西,整租,2室2厅2,121,2800,None,碑林,城东,西安市碑林区东屿枫舍,108.979715,34.263221,23.14049587
https://xa.lianjia.com/zufang/XA1618248474199851008.html,整租·翡翠明珠 1室0厅 南,整租,1室0厅1,55,2500,375m,碑林,南稍门,西安市碑林区翡翠明珠,108.95447,34.243805,45.45454545
https://xa.lianjia.com/zufang/XA1618523012527554560.html,整租·大话南门 2室1厅 南,整租,2室1厅1,108,3500,915m,碑林,南稍门,西安市碑林区大话南门,108.954973,34.246207,32.40740741
https://xa.lianjia.com/zufang/XA1615195448123850752.html,合租·朱雀坊 4居室 北卧,合租,4室1厅2,30,1300,560m,碑林,黄雁村,西安市碑林区朱雀坊,108.941855,34.251075,43.33333333
https://xa.lianjia.com/zufang/XA1618523979557896192.html,整租·景寓学府东区 1室1厅 西北,整租,1室1厅1,48,2100,1078m,碑林,城西,西安市碑林区景寓学府东区,108.925526,34.253931,43.75
https://xa.lianjia.com/zufang/XA1615615123940966400.html,合租·朱雀坊 4居室 北卧,合租,4室1厅2,30,1300,560m,碑林,黄雁村,西安市碑林区朱雀坊,108.941855,34.251075,43.33333333
https://xa.lianjia.com/zufang/XA1618448250040221696.html,整租·三五三八社区 2室1厅 南,整租,2室1厅1,50,1400,864m,碑林,南稍门,西安市碑林区三五三八社区,108.957959,34.239089,28
https://xa.lianjia.com/zufang/XA1617370409122922496.html,合租·兰蒂斯城2期 4居室 东卧,合租,4室1厅2,17,800,415m,碑林,城东,西安市碑林区兰蒂斯城2期,109.000678,34.250559,47.05882353
https://xa.lianjia.com/zufang/XA1618147923722240000.html,合租·学府首座南沙社区 3居室 东卧,合租,3室1厅1,18,750,870m,碑林,城东,西安市碑林区学府首座南沙社区,108.99944,34.250486,41.66666667
https://xa.lianjia.com/zufang/XA1618457032526921728.html,合租·帝源豪庭大厦 4居室 东卧,合租,4室1厅2,20,850,612m,碑林,城东,西安市碑林区帝源豪庭大厦,108.999973,34.248493,42.5
https://xa.lianjia.com/zufang/XA1618461620260831232.html,整租·瑞鑫摩天城 1室0厅 西南,整租,1室0厅1,43,1800,910m,碑林,城西,西安市碑林区瑞鑫摩天城,108.925762,34.24141,41.86046512
https://xa.lianjia.com/zufang/XA1616382269423878144.html,合租·仁厚庄园 4居室 南卧,合租,4室1厅1,10,800,769m,碑林,城东,西安市碑林区仁厚庄园,108.999637,34.263455,80
https://xa.lianjia.com/zufang/XA1616686235273658368.html,合租·新兴新庆坊 4居室 南卧,合租,4室0厅2,20,501,429m,碑林,城东,西安市碑林区新兴新庆坊,108.998519,34.267227,25.05
https://xa.lianjia.com/zufang/XA1617414970864041984.html,整租·恒兴文艺广场 1室0厅 西,整租,1室0厅1,38.95,1900,339m,碑林,南稍门,西安市碑林区恒兴文艺广场,108.959662,34.24484,48.7804878
https://xa.lianjia.com/zufang/XA1616725159048118272.html,整租·学府首座 1室1厅 南,整租,1室1厅1,90,1848,755m,碑林,城东,西安市碑林区学府首座,108.996695,34.249715,20.53333333
https://xa.lianjia.com/zufang/XA1617430471468122112.html,整租·宏信国际花园 1室0厅 南,整租,1室0厅1,45,2700,321m,碑林,南稍门,西安市碑林区宏信国际花园,108.9572,34.256363,60
https://xa.lianjia.com/zufang/XA1617745200115875840.html,整租·金色城市 2室1厅 东,整租,2室1厅1,80,3000,413m,碑林,南稍门,西安市碑林区金色城市,108.959344,34.250987,37.5
https://xa.lianjia.com/zufang/XA1617430121801580544.html,整租·华融国际 1室1厅 北,整租,1室1厅1,193,7500,1034m,碑林,黄雁村,西安市碑林区华融国际,108.94468,34.236724,38.86010363
https://xa.lianjia.com/zufang/XA1617438044476932096.html,整租·中贸广场 2室1厅 西,整租,2室1厅1,69,2800,217m,碑林,南稍门,西安市碑林区中贸广场,108.952082,34.248943,40.57971014
https://xa.lianjia.com/zufang/XA1617448362422829056.html,整租·柠檬公寓 1室0厅 西/北,整租,1室0厅1,56,1800,1049m,碑林,黄雁村,西安市碑林区柠檬公寓,108.939023,34.237467,32.14285714
https://xa.lianjia.com/zufang/XA1617455214883766272.html,整租·陕西省公路局家属住宅区 1室1厅 南,整租,1室1厅1,55,1500,347m,碑林,黄雁村,西安市碑林区陕西省公路局家属住宅区,108.938131,34.251566,27.27272727
https://xa.lianjia.com/zufang/XA1617463093086912512.html,整租·华豪丽晶黄东社区 2室1厅 西北,整租,2室1厅1,89,2800,25m,碑林,黄雁村,西安市碑林区华豪丽晶黄东社区,108.939359,34.246878,31.46067416
https://xa.lianjia.com/zufang/XA1616800558490845184.html,合租·新兴新庆坊 4居室 南卧,合租,4室0厅2,25,604,429m,碑林,城东,西安市碑林区新兴新庆坊,108.998519,34.267227,24.16
https://xa.lianjia.com/zufang/XA1617012140776882176.html,合租·新兴新庆坊 4居室 南卧,合租,4室0厅2,25,625,216m,碑林,城东,西安市碑林区新兴新庆坊,108.998519,34.267227,25
https://xa.lianjia.com/zufang/XA1617116014397358080.html,整租·天伦御城龙脉刘家庄小区 2室1厅 南,整租,2室1厅1,86,2184,682m,碑林,城东,西安市碑林区天伦御城龙脉刘家庄小区,108.943164,34.256609,25.39534884
https://xa.lianjia.com/zufang/XA1617463488446201856.html,整租·华豪丽晶黄东社区 1室0厅 东,整租,1室0厅1,43,1700,25m,碑林,黄雁村,西安市碑林区华豪丽晶黄东社区,108.939359,34.246878,39.53488372
https://xa.lianjia.com/zufang/XA1617787176999714816.html,整租·三五三八社区 2室1厅 南,整租,2室1厅1,60,1500,864m,碑林,南稍门,西安市碑林区三五三八社区,108.957959,34.239089,25
https://xa.lianjia.com/zufang/XA1617124285980082176.html,整租·高山流水星座 1室1厅 南,整租,1室1厅1,55,2350,None,碑林,城东,西安市碑林区高山流水星座,109.002494,34.261918,42.72727273
https://xa.lianjia.com/zufang/XA1617490615921016832.html,整租·兰蒂斯城1期 1室0厅 北,整租,1室0厅1,42,1900,474m,碑林,城东,西安市碑林区兰蒂斯城1期,108.995852,34.250943,45.23809524
https://xa.lianjia.com/zufang/XA1617492268548096000.html,整租·大话南门 1室0厅 西,整租,1室0厅1,55,2300,915m,碑林,南稍门,西安市碑林区大话南门,108.954973,34.246207,41.81818182
https://xa.lianjia.com/zufang/XA1617007869578706944.html,合租·新兴新庆坊 4居室 南卧,合租,4室0厅2,22,570,216m,碑林,城东,西安市碑林区新兴新庆坊,108.998519,34.267227,25.90909091
https://xa.lianjia.com/zufang/XA1617416441579962368.html,整租·兰蒂斯城1期 2室1厅 南,整租,2室1厅1,58,2420,474m,碑林,城东,西安市碑林区兰蒂斯城1期,108.995852,34.250943,41.72413793
https://xa.lianjia.com/zufang/XA1617803409912496128.html,整租·新旅城 2室1厅 北,整租,2室1厅1,65.24,2500,715m,碑林,李家村,西安市碑林区新旅城,108.965556,34.242714,38.32004905
https://xa.lianjia.com/zufang/XA1617794703174926336.html,整租·大学东路33号院 2室2厅 南/北,整租,2室2厅1,55.32,1600,784m,碑林,南稍门,西安市碑林区大学东路33号院,108.942306,34.255035,28.92263196
https://xa.lianjia.com/zufang/XA1618151582577197056.html,整租·新旅城 2室1厅 北,整租,2室1厅1,60.5,2400,715m,碑林,李家村,西安市碑林区新旅城,108.965556,34.242714,39.66942149
https://xa.lianjia.com/zufang/XA1617505468110864384.html,整租·高山流水星座 1室1厅 南,整租,1室1厅1,55,2184,None,碑林,城东,西安市碑林区高山流水星座,109.002494,34.261918,39.70909091
https://xa.lianjia.com/zufang/XA1617758412836175872.html,整租·高山流水星座 1室0厅 南,整租,1室0厅1,47,2150,None,碑林,城东,西安市碑林区高山流水星座,109.002494,34.261918,45.74468085
https://xa.lianjia.com/zufang/XA1618115481762267136.html,整租·西安公馆 2室1厅 南,整租,2室1厅1,80,2800,796m,碑林,南稍门,西安市碑林区西安公馆,108.946415,34.250533,35
https://xa.lianjia.com/zufang/XA1614208244366966784.html,整租·长安大街3号 3室2厅 东,整租,3室2厅1,101.11,3800,259m,碑林,南稍门,西安市碑林区长安大街3号,108.95558,34.238625,37.58283058
https://xa.lianjia.com/zufang/XA1617800431247818752.html,整租·学府首座南沙社区 2室2厅 南,整租,2室2厅1,86,2520,779m,碑林,城东,西安市碑林区学府首座南沙社区,108.99944,34.250486,29.30232558
https://xa.lianjia.com/zufang/XA1614591539902676992.html,整租·军工南院 2室1厅 南/北,整租,2室1厅1,100,2200,1138m,碑林,黄雁村,西安市碑林区军工南院,108.975343,34.240908,22
https://xa.lianjia.com/zufang/XA1606272955313029120.html,整租·绿地乐和城 1室1厅 西,整租,1室1厅1,42,2100,659m,碑林,李家村,西安市碑林区绿地乐和城,108.974294,34.238132,50
https://xa.lianjia.com/zufang/XA1614108669874536448.html,整租·高山流水星座 1室1厅 南,整租,1室1厅1,55,2100,None,碑林,城东,西安市碑林区高山流水星座,109.002494,34.261918,38.18181818
https://xa.lianjia.com/zufang/XA1614099823961571328.html,整租·西关新苑 2室2厅 西南,整租,2室2厅1,92,3283,None,碑林,城西,西安市碑林区西关新苑,108.921719,34.256247,35.68478261
https://xa.lianjia.com/zufang/XA1606328418369011712.html,整租·中贸广场 1室1厅 西,整租,1室1厅1,51,2300,217m,碑林,南稍门,西安市碑林区中贸广场,108.952082,34.248943,45.09803922
https://xa.lianjia.com/zufang/XA1614108815307833344.html,整租·高山流水星座 1室1厅 南,整租,1室1厅1,50,2184,None,碑林,城东,西安市碑林区高山流水星座,109.002494,34.261918,43.68
https://xa.lianjia.com/zufang/XA1606157976517738496.html,整租·教会小区 2室1厅 南,整租,2室1厅1,60,1000,None,碑林,城东,西安市碑林区教会小区,108.98917,34.267874,16.66666667
https://xa.lianjia.com/zufang/XA1606204072958885888.html,整租·太白星座 1室0厅 南,整租,1室0厅1,40,1800,376m,碑林,黄雁村,西安市碑林区太白星座,108.93049,34.250806,45
https://xa.lianjia.com/zufang/XA1605789794120499200.html,整租·新旅城上东 1室1厅 东,整租,1室1厅1,47,2000,None,碑林,李家村,西安市碑林区新旅城上东,108.973419,34.239018,42.55319149
https://xa.lianjia.com/zufang/XA1614124529569759232.html,整租·高山流水星座 1室1厅 南,整租,1室1厅1,52,2100,None,碑林,城东,西安市碑林区高山流水星座,109.002494,34.261918,40.38461538
https://xa.lianjia.com/zufang/XA1605791074767339520.html,整租·长安大街3号 1室0厅 东,整租,1室0厅1,46.45,3000,259m,碑林,南稍门,西安市碑林区长安大街3号,108.95558,34.238625,64.58557589
https://xa.lianjia.com/zufang/XA1614128843134599168.html,整租·学府首座 1室1厅 南/北,整租,1室1厅1,58,2400,494m,碑林,城东,西安市碑林区学府首座,108.996695,34.249715,41.37931034
https://xa.lianjia.com/zufang/XA1614223167071453184.html,整租·高山流水星座 1室1厅 南,整租,1室1厅1,40,2184,None,碑林,城东,西安市碑林区高山流水星座,109.002494,34.261918,54.6
https://xa.lianjia.com/zufang/XA1605804759741104128.html,整租·宏信国际花园 2室1厅 南,整租,2室1厅2,110.48,4500,321m,碑林,南稍门,西安市碑林区宏信国际花园,108.9572,34.256363,40.73135409
https://xa.lianjia.com/zufang/XA1605882775787798528.html,整租·招商局广场 2室2厅 北,整租,2室2厅1,128,4500,1098m,碑林,城东,西安市碑林区招商局广场,108.980836,34.265269,35.15625
https://xa.lianjia.com/zufang/XA1614485257145286656.html,整租·高山流水星座 1室1厅 南,整租,1室1厅1,50,2184,None,碑林,城东,西安市碑林区高山流水星座,109.002494,34.261918,43.68
https://xa.lianjia.com/zufang/XA1614279226804928512.html,整租·学府首座 1室1厅 南,整租,1室1厅1,65,2150,755m,碑林,城东,西安市碑林区学府首座,108.996695,34.249715,33.07692308
https://xa.lianjia.com/zufang/XA1614485257782820864.html,整租·高山流水星座 1室1厅 南,整租,1室1厅1,50,2184,None,碑林,城东,西安市碑林区高山流水星座,109.002494,34.261918,43.68
https://xa.lianjia.com/zufang/XA1606240947144753152.html,整租·西窑坊小区 2室1厅 东北,整租,2室1厅1,70,1800,419m,碑林,城东,西安市碑林区西窑坊小区,108.997319,34.272159,25.71428571
https://xa.lianjia.com/zufang/XA1606245716064206848.html,整租·兰蒂斯城2期 3室2厅 南/北,整租,3室2厅2,108,2700,162m,碑林,城东,西安市碑林区兰蒂斯城2期,109.000678,34.250559,25
https://xa.lianjia.com/zufang/XA1606249620806041600.html,整租·乐居都会 2室2厅 北,整租,2室2厅2,131.19,2800,None,碑林,城东,西安市碑林区乐居都会,116.512569,39.959557,21.34309017
https://xa.lianjia.com/zufang/XA1606526583626006528.html,整租·陕西省工信厅家属院 3室1厅 南/北,整租,3室1厅1,98.43,2000,659m,碑林,城东,西安市碑林区陕西省工信厅家属院,109.001217,34.270961,20.31900843
https://xa.lianjia.com/zufang/XA1606867267985866752.html,整租·兰蒂斯城1期 1室0厅 北,整租,1室0厅1,40,1900,474m,碑林,城东,西安市碑林区兰蒂斯城1期,108.995852,34.250943,47.5
https://xa.lianjia.com/zufang/XA1606512590182154240.html,整租·东新城市花园 3室2厅 南/北,整租,3室2厅2,140,3500,905m,碑林,城东,西安市碑林区东新城市花园,109.012142,34.250096,25
https://xa.lianjia.com/zufang/XA1606888835826843648.html,整租·宏信国际花园 1室0厅 东南,整租,1室0厅1,49,2100,321m,碑林,南稍门,西安市碑林区宏信国际花园,108.9572,34.256363,42.85714286
https://xa.lianjia.com/zufang/XA1614485257468248064.html,整租·高山流水星座 1室1厅 南,整租,1室1厅1,50,2184,None,碑林,城东,西安市碑林区高山流水星座,109.002494,34.261918,43.68
https://xa.lianjia.com/zufang/XA1606852476298854400.html,整租·标新街一印家属院 2室1厅 南,整租,2室1厅1,49,1600,994m,碑林,李家村,西安市碑林区标新街一印家属院,108.973201,34.253977,32.65306122
https://xa.lianjia.com/zufang/XA1614516135711997952.html,合租·公园人家 4居室 南卧,合租,4室1厅1,20,778,880m,碑林,城东,西安市碑林区公园人家,109.001316,34.269033,38.9
https://xa.lianjia.com/zufang/XA1606978184526430208.html,整租·广丰大厦 1室1厅 南/北,整租,1室1厅0,711.19,46800,892m,碑林,黄雁村,西安市碑林区广丰大厦,108.937738,34.236801,65.80519974
https://xa.lianjia.com/zufang/XA1614827795010027520.html,合租·世家星苑 4居室 南卧,合租,4室1厅2,30,1730,591m,碑林,南稍门,西安市碑林区世家星苑,108.954113,34.251819,57.66666667
https://xa.lianjia.com/zufang/XA1606505634033827840.html,整租·兰蒂斯城3期 3室2厅 东南,整租,3室2厅2,132,3500,427m,碑林,城东,西安市碑林区兰蒂斯城3期,108.998026,34.252037,26.51515152
https://xa.lianjia.com/zufang/XA1600818980438671360.html,整租·中联颐华苑 2室2厅 南,整租,2室2厅2,130,3200,672m,碑林,南稍门,西安市碑林区中联颐华苑,108.959695,34.255319,24.61538462
https://xa.lianjia.com/zufang/XA1617506858380034048.html,合租·世家星苑 4居室 南卧,合租,4室1厅2,24,1469,591m,碑林,南稍门,西安市碑林区世家星苑,108.954113,34.251819,61.20833333
https://xa.lianjia.com/zufang/XA1600762060654772224.html,整租·中贸广场 1室1厅 西,整租,1室1厅1,55,2700,217m,碑林,南稍门,西安市碑林区中贸广场,108.952082,34.248943,49.09090909
https://xa.lianjia.com/zufang/XA1601873003442864128.html,整租·大话南门 2室1厅 南,整租,2室1厅1,97,3000,915m,碑林,南稍门,西安市碑林区大话南门,108.954973,34.246207,30.92783505
https://xa.lianjia.com/zufang/XA1597821920550584320.html,整租·李家村万达广场 1室1厅 东,整租,1室1厅1,49,2100,401m,碑林,李家村,西安市碑林区李家村万达广场,108.968448,34.249853,42.85714286
https://xa.lianjia.com/zufang/XA1598927921085415424.html,整租·凯旋城 2室1厅 东南,整租,2室1厅1,93,2900,899m,碑林,黄雁村,西安市碑林区凯旋城,108.933269,34.240563,31.1827957
https://xa.lianjia.com/zufang/XA1597880418449752064.html,整租·兰蒂斯城1期 3室2厅 南/北,整租,3室2厅2,106,2900,474m,碑林,城东,西安市碑林区兰蒂斯城1期,108.995852,34.250943,27.35849057
https://xa.lianjia.com/zufang/XA1617758412836175872.html,整租·高山流水星座 1室0厅 南,整租,1室0厅1,47,2150,None,碑林,城东,西安市碑林区高山流水星座,109.002494,34.261918,45.74468085
https://xa.lianjia.com/zufang/XA1615220848208117760.html,整租·乐居都会 1室1厅 南,整租,1室1厅1,60,2184,None,碑林,城东,西安市碑林区乐居都会,116.512569,39.959557,36.4
https://xa.lianjia.com/zufang/XA1599968014785052672.html,整租·荣城 2室2厅 南,整租,2室2厅1,89.94,3500,775m,碑林,南稍门,西安市碑林区荣城,108.957725,34.241127,38.91483211
https://xa.lianjia.com/zufang/XA1601909705381249024.html,整租·学府首座 3室2厅 东南,整租,3室2厅2,108,4000,494m,碑林,城东,西安市碑林区学府首座,108.996695,34.249715,37.03703704
https://xa.lianjia.com/zufang/XA1602162639012626432.html,整租·乐居都会 3室2厅 南/北,整租,3室2厅2,210,6000,None,碑林,城东,西安市碑林区乐居都会,116.512569,39.959557,28.57142857
https://xa.lianjia.com/zufang/XA1615248959524044800.html,整租·高山流水星座 1室1厅 南,整租,1室1厅1,60,2190,None,碑林,城东,西安市碑林区高山流水星座,109.002494,34.261918,36.5
https://xa.lianjia.com/zufang/XA1602167325702750208.html,整租·南门望城 1室0厅 北,整租,1室0厅1,43,2000,633m,碑林,南稍门,西安市碑林区南门望城,108.950908,34.252407,46.51162791
https://xa.lianjia.com/zufang/XA1602242903629889536.html,整租·三五三八社区 2室1厅 南,整租,2室1厅1,117,3000,864m,碑林,南稍门,西安市碑林区三五三八社区,108.957959,34.239089,25.64102564
https://xa.lianjia.com/zufang/XA1601153330929729536.html,整租·文艺南路190号 1室1厅 南/北,整租,1室1厅1,47,1000,845m,碑林,南稍门,西安市碑林区文艺南路190号,108.957937,34.243039,21.27659574
https://xa.lianjia.com/zufang/XA1601779632258940928.html,整租·黄金屋 1室1厅 西,整租,1室1厅1,59.2,2000,635m,碑林,黄雁村,西安市碑林区黄金屋,108.932622,34.251266,33.78378378
https://xa.lianjia.com/zufang/XA1615339766557966336.html,整租·西关新苑 2室1厅 南,整租,2室1厅1,95,2650,None,碑林,城西,西安市碑林区西关新苑,108.921719,34.256247,27.89473684
https://xa.lianjia.com/zufang/XA1601776142648344576.html,整租·煤炭工业西安设计研究院住宅区 2室2厅 南,整租,2室2厅1,93,2100,880m,碑林,城东,西安市碑林区煤炭工业西安设计研究院住宅区,108.987144,34.243088,22.58064516
https://xa.lianjia.com/zufang/XA1602155443344375808.html,整租·仁厚庄园 2室1厅 东/北,整租,2室1厅1,76,2500,714m,碑林,城东,西安市碑林区仁厚庄园,108.999637,34.263455,32.89473684
https://xa.lianjia.com/zufang/XA1602242895732015104.html,整租·太白星座 2室2厅 西北,整租,2室2厅1,87,2800,376m,碑林,黄雁村,西安市碑林区太白星座,108.93049,34.250806,32.18390805
https://xa.lianjia.com/zufang/XA1602241918559846400.html,整租·佳铭小区 3室2厅 东北,整租,3室2厅1,103,3000,None,碑林,城东,西安市碑林区佳铭小区,108.981151,34.263184,29.12621359
https://xa.lianjia.com/zufang/XA1602182370239184896.html,整租·学院山 1室1厅 南,整租,1室1厅1,58,2100,None,碑林,李家村,西安市碑林区学院山,108.960573,34.240343,36.20689655
https://xa.lianjia.com/zufang/XA2873079422347378688.html,整租·大话南门 2室1厅 西,整租,2室1厅0,188,17000,915m,碑林,南稍门,西安市碑林区大话南门,108.954973,34.246207,90.42553191
https://xa.lianjia.com/zufang/XA2873073465857425408.html,整租·长安壹栋 1室1厅 西,整租,1室1厅1,56,2400,729m,碑林,南稍门,西安市碑林区长安壹栋,108.955157,34.241415,42.85714286
https://xa.lianjia.com/zufang/XA2873787829496840192.html,整租·中贸广场 1室1厅 东,整租,1室1厅1,66,2800,217m,碑林,南稍门,西安市碑林区中贸广场,108.952082,34.248943,42.42424242
https://xa.lianjia.com/zufang/XA2734078157417627648.html,合租·南沙世纪花园 3居室 东卧,合租,3室1厅1,22,1050,475m,碑林,城东,西安市碑林区南沙世纪花园,108.999052,34.248911,47.72727273
https://xa.lianjia.com/zufang/XA2881232955882348544.html,整租·功德小区 3室2厅 东南,整租,3室2厅2,142,4500,606m,碑林,李家村,西安市碑林区功德小区,108.978116,34.253374,31.69014085
https://xa.lianjia.com/zufang/XA2881723298448670720.html,新兴翰园 3室2厅 南/北,未知,3室2厅2,168,4200,460m,碑林,城东,西安市碑林区新兴翰园,108.991573,34.246999,25
https://xa.lianjia.com/zufang/XA2764428987941273600.html,合租·学府首座南沙社区 3居室 东卧,合租,3室1厅1,22,1100,822m,碑林,城东,西安市碑林区学府首座南沙社区,108.99944,34.250486,50
https://xa.lianjia.com/zufang/XA1612663437718978560.html,合租·学府首座南沙社区 4居室 西卧,合租,4室1厅1,16,650,822m,碑林,城东,西安市碑林区学府首座南沙社区,108.99944,34.250486,40.625
https://xa.lianjia.com/zufang/XA1612666656436256768.html,合租·学府首座南沙社区 3居室 东卧,合租,3室1厅1,17,850,870m,碑林,城东,西安市碑林区学府首座南沙社区,108.99944,34.250486,50
https://xa.lianjia.com/zufang/XA1612671601319346176.html,合租·兰蒂斯城2期 4居室 东卧,合租,4室1厅2,18,900,1029m,碑林,城东,西安市碑林区兰蒂斯城2期,109.000678,34.250559,50
https://xa.lianjia.com/zufang/XA1610192953148440576.html,整租·常春藤花园 1室0厅 南,整租,1室0厅1,42,1800,1002m,碑林,城东,西安市碑林区常春藤花园,108.996411,34.253655,42.85714286
https://xa.lianjia.com/zufang/XA1611986771938115584.html,整租·都市凰庭 2室2厅 东/南/北,整租,2室2厅1,95.93,3000,884m,碑林,黄雁村,西安市碑林区都市凰庭,108.94207,34.253808,31.27280309
https://xa.lianjia.com/zufang/XA1612677155190210560.html,合租·学府首座南沙社区 3居室 东卧,合租,3室1厅1,21,950,870m,碑林,城东,西安市碑林区学府首座南沙社区,108.99944,34.250486,45.23809524
https://xa.lianjia.com/zufang/XA1612009670816301056.html,整租·大话南门 1室0厅 东,整租,1室0厅1,55,2500,915m,碑林,南稍门,西安市碑林区大话南门,108.954973,34.246207,45.45454545
https://xa.lianjia.com/zufang/XA1615195448123850752.html,合租·朱雀坊 4居室 北卧,合租,4室1厅2,30,1300,560m,碑林,黄雁村,西安市碑林区朱雀坊,108.941855,34.251075,43.33333333
https://xa.lianjia.com/zufang/XA1612009072129736704.html,整租·东木头市家属院 2室2厅 南/北,整租,2室2厅1,78,2500,840m,碑林,城内,西安市碑林区东木头市家属院,108.955622,34.261843,32.05128205
https://xa.lianjia.com/zufang/XA1615615123940966400.html,合租·朱雀坊 4居室 北卧,合租,4室1厅2,30,1300,560m,碑林,黄雁村,西安市碑林区朱雀坊,108.941855,34.251075,43.33333333
https://xa.lianjia.com/zufang/XA1617370409122922496.html,合租·兰蒂斯城2期 4居室 东卧,合租,4室1厅2,17,800,415m,碑林,城东,西安市碑林区兰蒂斯城2期,109.000678,34.250559,47.05882353
https://xa.lianjia.com/zufang/XA1618147923722240000.html,合租·学府首座南沙社区 3居室 东卧,合租,3室1厅1,18,750,870m,碑林,城东,西安市碑林区学府首座南沙社区,108.99944,34.250486,41.66666667
https://xa.lianjia.com/zufang/XA1612032738766880768.html,整租·世家星苑 2室1厅 北,整租,2室1厅1,77.9,8000,591m,碑林,南稍门,西安市碑林区世家星苑,108.954113,34.251819,102.6957638
https://xa.lianjia.com/zufang/XA1612033228992937984.html,整租·长安壹栋 1室1厅 西,整租,1室1厅1,49,2000,729m,碑林,南稍门,西安市碑林区长安壹栋,108.955157,34.241415,40.81632653
https://xa.lianjia.com/zufang/XA1618457032526921728.html,合租·帝源豪庭大厦 4居室 东卧,合租,4室1厅2,20,850,612m,碑林,城东,西安市碑林区帝源豪庭大厦,108.999973,34.248493,42.5
https://xa.lianjia.com/zufang/XA1612404210400231424.html,整租·北廓门小区 2室1厅 南,整租,2室1厅1,60,1200,625m,碑林,城东,西安市碑林区北廓门小区,108.982109,34.27285,20
https://xa.lianjia.com/zufang/XA1619171442497159168.html,整租·怡兰星空 1室0厅 北,整租,1室0厅1,33.82,1950,1091m,碑林,黄雁村,西安市碑林区怡兰星空,108.939798,34.236947,57.65819042
https://xa.lianjia.com/zufang/XA1612667634304679936.html,合租·帝源豪庭大厦 4居室 西卧,合租,4室1厅2,20,1000,488m,碑林,城东,西安市碑林区帝源豪庭大厦,108.999973,34.248493,50
https://xa.lianjia.com/zufang/XA1612671601386455040.html,合租·兰蒂斯城2期 4居室 东卧,合租,4室1厅2,18,900,1029m,碑林,城东,西安市碑林区兰蒂斯城2期,109.000678,34.250559,50
https://xa.lianjia.com/zufang/XA1612404350649368576.html,整租·宏信国际花园 2室2厅 南,整租,2室2厅2,110,5800,321m,碑林,南稍门,西安市碑林区宏信国际花园,108.9572,34.256363,52.72727273
https://xa.lianjia.com/zufang/XA1612415175640481792.html,整租·交大三村 2室1厅 南,整租,2室1厅1,65,2400,133m,碑林,城东,西安市碑林区交大三村,109.001595,34.252409,36.92307692
https://xa.lianjia.com/zufang/XA1612416958504894464.html,整租·华龙太乙城 3室2厅 南/北,整租,3室2厅2,116,4800,651m,碑林,城东,西安市碑林区华龙太乙城,108.980086,34.241036,41.37931034
https://xa.lianjia.com/zufang/XA1612415267613179904.html,整租·伊顿公馆东区 1室1厅 西,整租,1室1厅1,49,2000,364m,碑林,城西,西安市碑林区伊顿公馆东区,108.928463,34.245644,40.81632653
https://xa.lianjia.com/zufang/XA1612417920367853568.html,整租·學林雅苑 2室1厅 西/北,整租,2室1厅1,89,2600,684m,碑林,黄雁村,西安市碑林区學林雅苑,108.933545,34.25165,29.21348315
